city,lat,lng,distance_km_from_paris
Paris,48.8567,2.3522,0.0
Bellevue,48.871,2.385,2.8783777571477893
Le Pré-Saint-Gervais,48.8833,2.4,4.579450772339722
Gentilly,48.8133,2.3444,4.859510800515447
Montrouge,48.8172,2.3219,4.920292526472054
Bagnolet,48.8692,2.4181,5.017028206775594
Saint-Mandé,48.8422,2.4186,5.119076653383451
Charenton-le-Pont,48.8265,2.405,5.119314471462783
Le Kremlin-Bicêtre,48.81,2.3581,5.210728794821773
Les Lilas,48.88,2.42,5.595098803691519
Arcueil,48.8075,2.3361,5.5962761057271
Ivry-sur-Seine,48.8078,2.3747,5.681369936861916
Pantin,48.8966,2.4017,5.726112913893505
Vanves,48.8208,2.2897,6.071083082349209
Malakoff,48.8169,2.2944,6.122196358252706
Clichy,48.9044,2.3064,6.272886171812282
Saint-Ouen,48.9123,2.3342,6.320980099521962
Levallois-Perret,48.895,2.2872,6.382293221219101
Vincennes,48.8478,2.4392,6.441963025710809
Aubervilliers,48.9131,2.3831,6.665969245938958
Montreuil,48.8611,2.4436,6.704414178103462
Romainville,48.884,2.435,6.7742287049281416
Issy-les-Moulineaux,48.8239,2.27,7.034985284131573
Neuilly-sur-Seine,48.8881,2.2686,7.0409481855962905
Bagneux,48.7983,2.3137,7.078988198536092
Villejuif,48.7919,2.3636,7.25360168751985
Cachan,48.7919,2.3319,7.357089373151037
Carrières-sur-Seine,48.9108,2.2889,7.590209615778566
Châtillon,48.8,2.29,7.776948417837838
Alfortville,48.805,2.4239,7.784147447596404
Noisy-le-Sec,48.8894,2.4503,8.043430898869326
Vitry-sur-Seine,48.7875,2.3928,8.248824814365076
Maisons-Alfort,48.8058,2.4378,8.443482977014197
Boulogne-Billancourt,48.8352,2.2409,8.48809356078951
Courbevoic,48.8978,2.2531,8.567826105306269
L’Haÿ-les-Roses,48.78,2.3374,8.597212976696653
L’Île-Saint-Denis,48.9333,2.3333,8.628866940956554
Gennevilliers,48.9256,2.2944,8.749449896010868
Bobigny,48.9106,2.4397,8.766760563931193
Saint-Denis,48.9356,2.3539,8.774159843192944
Fontenay-aux-Roses,48.7893,2.2888,8.815404024075969
Puteaux,48.885,2.2389,8.864071117408951
Clamart,48.8014,2.2628,8.979795186494062
Bourg-la-Reine,48.7796,2.3151,8.993162773489907
La Courneuve,48.9322,2.3967,9.003486257594732
Saint-Maurice,48.8156,2.4592,9.067294753512261
Villeneuve-la-Garenne,48.9372,2.3278,9.127174208655925
Bois-Colombes,48.9175,2.2683,9.128926267430657
Fontenay-sous-Bois,48.8517,2.4772,9.162351536053203
La Garenne-Colombes,48.9056,2.2445,9.570215686005604
Rosny-sous-Bois,48.8667,2.4833,9.65457643699375
Joinville-le-Pont,48.8214,2.4728,9.659665693634553
Meudon,48.8123,2.2382,9.695151593965136
Suresnes,48.87,2.22,9.782907327849365
Sceaux,48.7786,2.2906,9.785660638855262
Nogent-sur-Marne,48.8375,2.4833,9.82782037287917
Saint-Cloud,48.84,2.22,9.849999732410911
Chevilly-Larue,48.7663,2.3533,10.052344089311148
Le Bourget,48.9353,2.4256,10.255598425451154
Colombes,48.9236,2.2522,10.430257413770741
Thiais,48.765,2.3923,10.610966395891483
Stains,48.95,2.3833,10.62060329523743
Le Plessis-Robinson,48.7811,2.2633,10.631626668738969
Bondy,48.9022,2.4828,10.807712527243227
Drancy,48.93,2.45,10.842136950837327
Créteil,48.7911,2.4628,10.89799625044595
Sèvres,48.8239,2.2117,10.910037389243572
Le Perreux-Sur-Marne,48.8422,2.5036,11.194756827274558
Villemomble,48.8833,2.5,11.207525596338645
Choisy-le-Roi,48.763,2.409,11.218522894274274
Neuilly-Plaisance,48.8619,2.5064,11.295507837334151
Dugny,48.95,2.4167,11.395427616546685
Épinay-sur-Seine,48.9553,2.3092,11.405368361776011
Châtenay-Malabry,48.7653,2.2781,11.521007231079366
Fresnes,48.755,2.3221,11.521366687117938
Les Pavillons-sous-Bois,48.9,2.5,11.832279652999054
Garches,48.8461,2.1889,12.006301363376691
Antony,48.7539,2.2975,12.112464625296187
Ville-d’Avray,48.8261,2.1933,12.116264167348884
Le Blanc-Mesnil,48.9387,2.4614,12.118517419725634
Pierrefitte-sur-Seine,48.9656,2.3614,12.127778449041768
Nanterre,48.8988,2.1969,12.283959068832402
Bezons,48.9261,2.2178,12.493966007124321
Saint-Maur-des-Fossés,48.7994,2.4997,12.537024471617837
Bry-sur-Marne,48.8411,2.5222,12.559516863375643
Argenteuil,48.9478,2.2489,12.634274346563078
Rueil-Malmaison,48.876,2.181,12.705150992746882
Champigny-sur-Marne,48.8172,2.5156,12.740126289562394
Orly,48.7439,2.3928,12.890464474759215
Le Raincy,48.9,2.5167,12.957377400672437
Enghien-les-Bains,48.9697,2.3081,12.971730223549766
Montmagny,48.9744,2.3467,13.093812468459497
Chaville,48.8086,2.1886,13.114896832463058
Garges-lès-Gonesse,48.9728,2.4008,13.389322960634987
Deuil-la-Barre,48.9767,2.3272,13.46786227525436
Bonneuil-sur-Marne,48.7742,2.4875,13.5017588434351
Gagny,48.8833,2.5333,13.571989177743529
Aulnay-sous-Bois,48.9386,2.4906,13.612127165892485
Verrières-le-Buisson,48.7464,2.2674,13.74770544935922
Saint-Gratien,48.9719,2.2828,13.777046003005827
Houilles,48.9261,2.1892,14.197239293998257
Vaucresson,48.8392,2.1578,14.357284806404714
Neuilly-sur-Marne,48.8537,2.549,14.402197994988512
Villiers-sur-Marne,48.8275,2.5447,14.456753988369911
Villeneuve-le-Roi,48.7333,2.4167,14.512080294947156
Sannois,48.9722,2.2578,14.578410294435328
Noisy-le-Grand,48.8478,2.5528,14.710541462671992
Chatou,48.8897,2.1573,14.718929118825143
Chennevières-sur-Marne,48.7983,2.5339,14.801490457695884
Vélizy-Villacoublay,48.7834,2.1834,14.80417282123534
Viroflay,48.8,2.167,14.951249364003377
Valenton,48.745,2.4672,15.007047951279544
Montmorency,48.9906,2.3228,15.043149863373769
Livry-Gargan,48.9192,2.5361,15.135582441840619
Soisy-sous-Montmorency,48.9886,2.3006,15.143413817410442
Massy,48.7309,2.2713,15.191825373021667
Arnouville-lès-Gonesse,48.9878,2.4175,15.338556713888163
Croissy-sur-Seine,48.8783,2.1433,15.46745742048576
Villeneuve-Saint-Georges,48.7325,2.4497,15.547823780504483
Sarcelles,48.9956,2.3808,15.585671448842374
Igny,48.7421,2.2261,15.73806925248902
Ormesson-sur-Marne,48.7858,2.5383,15.74122567367962
Sevran,48.9333,2.5333,15.742404785358278
Sucy-en-Brie,48.7697,2.5228,15.799816186639099
Limeil-Brévannes,48.7464,2.4883,15.8046593300453
Saint-Brice-sous-Forêt,48.9992,2.3578,15.850557648873382
Clichy-sous-Bois,48.9102,2.5532,15.855622030152261
Montesson,48.9085,2.1496,15.894890564157544
Eaubonne,48.9922,2.2806,15.949198250407324
La Celle-Saint-Cloud,48.8411,2.1344,16.030871669033523
Bougival,48.8667,2.1333,16.051699983640173
Gonesse,48.9875,2.4494,16.18557831764928
Sartrouville,48.9372,2.1644,16.388806149070955
Montfermeil,48.9,2.5667,16.408343655380886
Ermont,48.9922,2.2603,16.495262459882614
Le Vésinet,48.8923,2.1331,16.50539369338425
Boissy-Saint-Léger,48.7511,2.5106,16.50626220188454
Le Chesnay,48.8211,2.1311,16.6586035765538
Athis-Mons,48.7074,2.3889,16.817762774583183
Le Plessis-Trévise,48.8111,2.5717,16.84709124239909
Morangis,48.7055,2.3326,16.87389563729395
Versailles,48.805,2.135,16.906002931781295
Cormeilles-en-Parisis,48.9739,2.2014,17.06651749183341
Franconville,48.9889,2.2314,17.14608740311956
Villiers-le-Bel,49.0094,2.3911,17.21559818110989
Chilly-Mazarin,48.7025,2.3125,17.391261638581934
Crosne,48.7164,2.458,17.420127664884518
Villepinte,48.955,2.541,17.603655470396387
Palaiseau,48.7145,2.2457,17.63228120997252
Vigneux-sur-Seine,48.7001,2.417,18.048881734707884
La Queue-en-Brie,48.79,2.5775,18.084729308126967
Maisons-Laffitte,48.9469,2.1456,18.128541477969332
Champs-Sur-Marne,48.8529,2.6027,18.332161488529277
Chelles,48.8833,2.6,18.364007581303785
Yerres,48.7171,2.4881,18.441409572759877
Le Pecq,48.8969,2.1069,18.48749098844275
Longjumeau,48.6943,2.2958,18.52496551225835
Montgeron,48.7039,2.4605,18.752310316937297
Juvisy-sur-Orge,48.6889,2.3783,18.756286046272812
Marly-le-Roi,48.8675,2.0947,18.8749253622493
Montigny-lès-Cormeilles,48.9944,2.1958,19.105174408339426
Ézanville,49.0286,2.3617,19.12699617843523
Domont,49.0283,2.3275,19.166133894270995
Saint-Leu-la-Forêt,49.0175,2.2472,19.45559156815676
Saint-Germain-en-Laye,48.8989,2.0938,19.470487736601676
Draveil,48.6852,2.408,19.503453992508682
Villebon-sur-Yvette,48.7002,2.2277,19.648218552209286
Savigny-sur-Orge,48.6797,2.3457,19.687266426980337
Villecresnes,48.7214,2.5342,20.102583559438543
Noisiel,48.8547,2.6289,20.245013186848006
Lognes,48.836,2.6278,20.29800658243817
Épinay-sur-Orge,48.6726,2.3239,20.57580378053671
Viry-Châtillon,48.6713,2.375,20.683161060376467
Brunoy,48.6979,2.5044,20.884844582684835
Taverny,49.0264,2.2275,20.952719198573327
Villeparisis,48.9503,2.6025,21.048134260258625
Beauchamp,49.0144,2.1906,21.138270322965408
Orsay,48.6993,2.1875,21.259553811616207
Goussainville,49.0325,2.4747,21.49800155660774
Épinay-sous-Sénart,48.6948,2.5147,21.584299874096892
Morsang-sur-Orge,48.6618,2.3461,21.676503541021464
Vaires-sur-Marne,48.8667,2.65,21.8132459127118
Torcy,48.8502,2.6508,21.85896115728119
Saint-Cyr-l’École,48.8008,2.0633,22.042294682375655
Grigny,48.6562,2.3849,22.42308161745852
Guyancourt,48.7714,2.0739,22.47704560491143
Bures-sur-Yvette,48.6969,2.1639,22.497116214634865
Bessancourt,49.0386,2.2142,22.59791715944094
Fontenay-le-Fleury,48.8144,2.0494,22.655843568581243
Ris-Orangis,48.6537,2.4161,23.053512257953958
Roissy-en-Brie,48.7906,2.6519,23.138912323851347
Gif-sur-Yvette,48.7018,2.1339,23.505869727791087
Magny-les-Hameaux,48.7363,2.0877,23.549733720927925
Pierrelaye,49.0233,2.1508,23.654998031727448
Louvres,49.0447,2.5056,23.7166825613124
Achères,48.9602,2.0684,23.720299946613423
Poissy,48.9294,2.0456,23.827755292529332
Mitry-Mory,48.9833,2.6167,23.909767126233287
Conflans-Sainte-Honorine,48.9992,2.0983,24.39535024652376
Bois-d’Arcy,48.8,2.03,24.41364493844326
Sainte-Geneviève-des-Bois,48.6369,2.3403,24.456213926656392
Voisins-le-Bretonneux,48.7592,2.0517,24.531643660484896
Quincy-sous-Sénart,48.6714,2.5407,24.807824410638872
Montlhéry,48.6392,2.2722,24.886005041872217
Carrières-sous-Poissy,48.9486,2.0394,25.04317999936348
Montigny-le-Bretonneux,48.7711,2.0333,25.21609521396522
Fleury-Mérogis,48.63,2.362,25.218130014671562
Bussy-Saint-Georges,48.8422,2.6983,25.375628038285296
Saint-Michel-sur-Orge,48.6303,2.3025,25.43693504420056
Marcoussis,48.6424,2.2307,25.43965487972401
Andrésy,48.9817,2.0592,25.525317343093636
Ozoir-la-Ferrière,48.778,2.68,25.54631469526417
Villepreux,48.8308,2.0031,25.708591652406433
Combs-la-Ville,48.67,2.56,25.748079495637956
Méry-sur-Oise,49.0644,2.1872,26.048059496056098
Thorigny-sur-Marne,48.8788,2.7075,26.103945939395455
Éragny,49.0181,2.0922,26.12937300893183
Brie-Comte-Robert,48.6917,2.6083,26.245440470915153
Courcouronnes,48.6239,2.4294,26.49795984727979
Évry,48.6238,2.4296,26.51195977048819
Bondoufle,48.6145,2.3807,27.01239356686616
Trappes,48.7775,2.0025,27.076490176499593
Chanteloup-les-Vignes,48.9792,2.0319,27.07970478968463
Saint-Ouen-l’Aumône,49.0447,2.1111,27.330662886192595
Les Clayes-sous-Bois,48.8167,1.9833,27.36341558203868
Claye-Souilly,48.95,2.7,27.45676059551184
Brétigny-sur-Orge,48.6114,2.3059,27.486660712027863
Pontoise,49.0516,2.1017,28.358878944872245
Jouy-le-Moutier,49.0117,2.0397,28.602926303574783
Corbeil-Essonnes,48.6139,2.482,28.627140888822982
Lieusaint,48.6333,2.55,28.764870648468982
Triel-sur-Seine,48.9817,2.0069,28.805806285099276
Montévrain,48.875,2.7456,28.84774518140149
Cergy,49.0361,2.0631,29.046160588243616
Saint-Pierre-du-Perray,48.6123,2.4952,29.129401785893805
Fosses,49.0989,2.5075,29.21926032595254
Vernouillet,48.9728,1.9842,29.829867504623788
Élancourt,48.7847,1.9589,29.886794486648654
L’Isle-Adam,49.1119,2.2236,29.888407810338148
Plaisir,48.8183,1.9472,29.947128677636826
Saint-Germain-lès-Arpajon,48.5946,2.2558,29.989723878823177
Arpajon,48.5901,2.2476,30.62145149270307
Vauréal,49.0353,2.0328,30.634587144309872
Gretz-Armainvilliers,48.7417,2.735,30.81615654288197
Verneuil-sur-Seine,48.9806,1.9747,30.832886721533562
Osny,49.06,2.0633,30.918275750596035
Moissy-Cramayel,48.6269,2.5931,31.064028151127978
Maurepas,48.76,1.95,31.354698175587576
Serris,48.8456,2.7878,31.895916845608077
Beaumont-sur-Oise,49.1431,2.2872,32.197305653976414
Dammartin-en-Goële,49.0538,2.6817,32.544645533397116
Mennecy,48.5661,2.4369,32.90542540527009
Persan,49.1542,2.2719,33.595032278609246
Magny-le-Hongre,48.8631,2.8133,33.73941789352135
Lamorlaye,49.1556,2.4417,33.87123016569673
Savigny-le-Temple,48.5841,2.5832,34.72698863370562
Les Mureaux,48.9875,1.9172,34.95273164516457
Breuillet,48.5658,2.1706,34.98344451221351
Chambly,49.1672,2.2489,35.33845517832503
Gouvieux,49.1883,2.4169,37.1728242926414
Cesson,48.5633,2.6053,37.5398842181843
Vert-Saint-Denis,48.565,2.6147,37.72300268302207
Saint-Fargeau,48.5356,2.5241,37.86818025424598
Aubergenville,48.959,1.855,38.07677940201147
Chantilly,49.2,2.4667,39.07536062881792
Meaux,48.9603,2.8883,40.8388396981283
Le Mée-sur-Seine,48.5333,2.6289,41.29880170483227
Melun,48.5406,2.66,41.78180620386619
Senlis,49.2081,2.5875,42.67348919834466
Dammarie-lè-Lys,48.5177,2.6402,43.21885283174756
Dourdan,48.5289,2.0156,44.03371872322472
Vaux-le-Pénil,48.5257,2.6824,44.06904570527073
Montataire,49.2561,2.4392,44.861429688494134
Rambouillet,48.6444,1.8308,44.928016235167405
Méru,49.2356,2.1339,45.035746748618955
Creil,49.2583,2.4833,45.66619220559904
Nogent-sur-Oise,49.2756,2.4683,47.34127172610091
Limay,48.9942,1.7367,47.49613207933528
Mantes-la-Ville,48.975,1.7117,48.616887362175255
Mantes-la-Jolie,48.9908,1.7172,48.73159506245608
Étampes,48.4343,2.1615,49.01376414538279
Pont-Sainte-Maxence,49.3019,2.6044,52.801967854357436
Coulommiers,48.8247,3.1068,55.33853650413539
Fontainebleau,48.4097,2.7025,55.97449924869746
Avon,48.4097,2.7161,56.44108479348306
Crépy-en-Valois,49.2358,2.89,57.56105473027645
La Ferté-sous-Jouarre,48.9497,3.1303,57.805209082986835
Clermont,49.3797,2.4133,58.32469571753637
Nangis,48.5556,3.0153,59.06387671419984
Gisors,49.2811,1.7772,63.09988669952409
Beauvais,49.4303,2.0952,66.46447099739096
Vernon,49.09,1.49,68.0682119479611
Montereau-faut-Yonne,48.3853,2.9508,68.43582304541331
Villers-Cotterêts,49.26,3.0906,70.04139432412484
Nemours,48.2674,2.697,70.26811848188619
Compiègne,49.4149,2.8231,70.89543832364318
Margny-lès-Compiègne,49.4269,2.8217,72.01620295177946
Dreux,48.7372,1.3664,73.41915806815518
Vernouillet,48.7217,1.3614,74.12013360293552
Pithiviers,48.1725,2.2525,76.43316537726713
Provins,48.5604,3.299,76.88859863081787
Chartres,48.456,1.484,77.79389244462631
Château-Thierry,49.04,3.4,79.1840596688718
Mainvilliers,48.4539,1.4628,79.20829902635784
Lucé,48.4389,1.4658,79.99161915601529
Évreux,49.02,1.15,89.6662845747558
Soissons,49.3817,3.3236,91.68072084281319
Noyon,49.5817,2.9997,93.32944206518005
Louviers,49.22,1.17,95.17291442523121
Châlette-sur-Loing,48.0125,2.7364,98.05636036200303
Montargis,47.9978,2.7333,99.55858744979872
Sens,48.1975,3.2877,100.5906117337311
Amilly,47.9742,2.7708,102.87730675322378
Chauny,49.6164,3.22,105.38171590267561
Oissel,49.3425,1.0922,106.45470997600016
Saran,47.9514,1.8747,106.657117233375
Fleury-les-Aubrais,47.9312,1.921,107.72258133538068
Saint-Étienne-du-Rouvray,49.3786,1.105,107.73238959985439
Caudebec-lès-Elbeuf,49.2817,1.0222,107.7978041577386
Romilly-sur-Seine,48.5167,3.7275,107.80295645298268
Saint-Jean-de-Braye,47.9128,1.9719,108.64888952233
Elbeuf,49.29,1.01,108.99468783552192
Darnétal,49.4453,1.1519,109.10464193101326
Chécy,47.8942,2.0275,109.6789670334446
Sotteville-lès-Rouen,49.4092,1.09,110.48474262175255
Saint-Jean-de-la-Ruelle,47.9139,1.8745,110.61004082386378
Orléans,47.9025,1.909,111.0358891719678
Ingré,47.9211,1.825,111.0782549664535
Saint-Jean-le-Blanc,47.8928,1.9183,111.86920702286636
Tergnier,49.6564,3.2883,111.90242443868519
Le Grand-Quevilly,49.4072,1.0531,112.60643253321433
Grand-Couronne,49.3583,1.0081,112.61959342852128
Bois-Guillaume,49.4614,1.1092,112.65208535484207
Rouen,49.4428,1.0886,112.66253277112413
Le Petit-Couronne,49.3864,1.0283,112.91874778654696
La Chapelle-Saint-Mesmin,47.8906,1.8408,113.87234512699551
Mont-Saint-Aignan,49.463,1.0883,113.97893901417613
Le Petit-Quevilly,49.4311,1.0539,114.00567455361538
Châteaudun,48.0717,1.3387,114.90377745156434
Amiens,49.892,2.299,115.18451627860162
Olivet,47.8639,1.9006,115.32573553491827
Canteleu,49.4411,1.0261,116.29561035420217
Déville-lès-Rouen,49.47,1.05,116.6837813562464
Maromme,49.4825,1.0428,117.91398878302628
Épernay,49.0403,3.96,119.1702320358031
Laon,49.5639,3.6244,121.34076729102092
Joigny,47.9831,3.3978,124.05402276902014
Nogent-le-Rotrou,48.3225,0.8225,127.2233777101067
Tinqueux,49.2509,3.9918,127.26364980605337
Barentin,49.55,0.95,127.75065212050576
Albert,50.0028,2.6528,129.2810462330718
Saint-Quentin,49.8486,3.2864,129.3944938596415
Bernay,49.09,0.6,130.49343315917181
Reims,49.2628,4.0347,130.64037173353373
Gien,47.6897,2.63,131.3828449196759
Kotelva,50.0,3.0,135.48549414565028
La Chapelle-Saint-Luc,48.3125,4.0453,138.45779572204188
Sainte-Savine,48.2956,4.0497,139.59730784615388
Saint-André-les-Vergers,48.2806,4.0547,140.69449460293947
Troyes,48.2997,4.0792,141.33697172600088
Abbeville,50.1058,1.8358,143.81550360695496
Yvetot,49.62,0.75,143.9889041591551
La Ferté-Bernard,48.1875,0.6553,145.44365553136376
Notre-Dame-de-Gravenchon,49.49,0.5719,147.33336412631914
Châlons-en-Champagne,48.9575,4.365,147.53032277971812
Auxerre,47.7986,3.5672,148.02051723906152
Neuville-lès-Dieppe,49.9267,1.1014,149.49776497870926
Dieppe,49.925,1.075,150.51397733642335
Lillebonne,49.5189,0.5343,151.24364757895324
Vendôme,47.7936,1.0664,151.68929523595307
Bolbec,49.57,0.47,158.05255270405704
Lisieux,49.15,0.23,158.19736430371472
Blois,47.5939,1.3281,159.59645683284646
Cambrai,50.1767,3.2356,160.0301113573807
Caudry,50.1258,3.4125,160.5548803650489
Arras,50.292,2.78,162.55094792911422
Vitry-le-François,48.7256,4.5853,164.22986206204308
Cosne sur Loire,47.4122,2.9275,166.19671246797813
Gonfreville-l’Orcher,49.5058,0.2342,170.01767992644236
Hirson,49.9217,4.0839,172.42560455115787
Alençon,48.4306,0.0931,172.60077494848727
Argentan,48.75,-0.02,174.13277811716446
Fécamp,49.76,0.38,174.72454398613783
Montivilliers,49.5469,0.1889,174.90088914042073
Rouvroy,50.3942,2.9044,175.52671234457117
Méricourt,50.4031,2.8667,175.89812523167845
Avion,50.41,2.8336,176.1632207817693
Sin-le-Noble,50.363,3.113,176.23272479849902
Aniche,50.3306,3.2519,176.24976862809416
Douai,50.3714,3.08,176.39812430501402
Liévin,50.4228,2.7786,176.82769358852283
Douchy-les-Mines,50.3022,3.3939,177.408907710974
Sallaumines,50.4203,2.8631,177.7130041609642
Le Havre,49.49,0.1,178.2187498652284
Bully-les-Mines,50.4425,2.7253,178.36640747138148
Fourmies,50.0181,4.0539,178.3665467424623
Lens,50.4322,2.8333,178.57839239540868
Escaudain,50.335,3.343,179.2165362307841
Hénin-Beaumont,50.4217,2.9508,179.27748719899404
Montigny-en-Gohelle,50.4286,2.9308,179.68233802756205
Somain,50.3583,3.2811,179.88267682765914
Denain,50.3294,3.3958,180.20186716475507
Berck-sur-Mer,50.4089,1.5933,181.04110794879566
Harnes,50.4458,2.9067,181.1515158161585
Noeux-les-Mines,50.4803,2.6656,181.93898762780537
Vierzon,47.2225,2.0694,182.9266807870478
Courrières,50.4586,2.9481,183.2134055773134
Vendin-le-Vieil,50.4747,2.8667,183.68311379660523
Auchel,50.5086,2.4744,183.89310575733913
Aulnoye-Aymeries,50.205,3.8364,184.24889161937136
Le Mans,48.0077,0.1984,184.82108146306345
Oignies,50.47,2.9944,185.24781514310718
Wingles,50.4947,2.8561,185.70999507715433
Beuvry,50.5206,2.6803,186.51607861630924
Marly,50.349,3.545,186.87206027985235
Valenciennes,50.3581,3.5233,187.0570686930868
Carvin,50.4939,2.9589,187.20777771396965
Béthune,50.5303,2.6408,187.24963842704952
Anzin,50.3722,3.505,187.86573358874787
Raismes,50.3897,3.4867,189.03310165298973
Saint-Saulve,50.37,3.555,189.2686977038222
Allonnes,47.9686,0.1606,189.50571820042367
Lillers,50.5644,2.4831,190.12061460715688
Annoeullin,50.53,2.9336,190.70262823636372
Amboise,47.4042,0.98,190.92901348379468
Bruay-sur-l’Escaut,50.3989,3.5403,191.64459168338314
Étaples,50.5186,1.6414,191.73629964478513
Hautmont,50.2486,3.9253,191.90715547484
Saint-Dizier,48.6383,4.9497,191.9799536479845
Onnaing,50.3883,3.5989,192.52665689024573
Saint-Amand-les-Eaux,50.4486,3.4281,193.2096499810492
Chimay,50.0479,4.3173,194.20966673383668
Seclin,50.5489,3.0303,194.37829297755502
Saint-Doulchard,47.1056,2.3575,194.71383550941113
Ouistreham,49.28,-0.26,196.0228661841116
Maubeuge,50.2775,3.9734,196.53107273353496
Isbergues,50.6242,2.4575,196.6825839745647
Bourges,47.0844,2.3964,197.098227626351
Mondeville,49.1747,-0.3197,198.02606765961664
Aire-sur-la-Lys,50.64,2.4,198.32363846163548
Condé-sur-l’Escaut,50.45,3.5914,198.3517824102375
Montlouis-sur-Loire,47.3892,0.8281,198.54866121286895
Wattignies,50.5856,3.0439,198.5691677440905
Vieux-Condé,50.4603,3.5692,198.66159238605525
Hérouville-Saint-Clair,49.2044,-0.3253,198.9854924530339
Mohon,49.752,4.7315,199.15877482996405
Charleville-Mézières,49.7719,4.7161,199.28324417909937
Ifs,49.1389,-0.3519,199.74277190372928
Merville,50.6444,2.6411,199.8633986762723
Dour,50.3979,3.7807,199.87963006453737
Haubourdin,50.6097,2.9878,200.20373168920221
Lesquin,50.5906,3.1117,200.3790155318851
Fâches-Thumesnil,50.5994,3.0744,200.6092048264924
Loos,50.6128,3.0144,200.98291008896464
Caen,49.1814,-0.3636,201.295541493328
Ronchin,50.6053,3.0886,201.5077109353419
Saint-Pierre-des-Corps,47.3914,0.7289,202.63471094046238
Hellemmes-Lille,50.6167,3.1167,203.26573905020268
Lille,50.6278,3.0583,203.36571309757466
Lomme,50.6358,3.0142,203.46253449237773
Bernissart,50.4833,3.65,203.5515459408736
Jeumont,50.2953,4.1019,203.71510217522203
Boussu,50.4331,3.7961,203.78947923788465
Couvin,50.0519,4.4961,204.1351583205523
Colfontaine,50.4138,3.8555,204.19193776919488
Tours,47.3936,0.6892,204.2034987206568
Saint-Cyr-sur-Loire,47.399,0.6673,204.71010144264378
Péruwelz,50.5167,3.5833,204.72366684832855
Saint-Avertin,47.3675,0.7278,204.84193593086493
Annappes,50.6264,3.1506,204.9710614636614
Frameries,50.4088,3.8906,205.07780347086333
Lambersart,50.65,3.025,205.17775773106354
Mons-en-Baroeul,50.6369,3.1103,205.30364838925394
Flers-lez-Lille,50.6333,3.1333,205.36355423848713
La Chapelle d’Armentières,50.6736,2.8961,205.7705623118816
La Riche,47.39,0.6614,205.77665972131672
Bar-le-Duc,48.7719,5.1603,205.81917889346076
Erquelinnes,50.3099,4.1214,205.84829103357367
Saint-Ghislain,50.45,3.8167,206.15291455898188
La Madeleine,50.6558,3.071,206.60455778965215
Saint-André,50.6608,3.045,206.68484041650706
Armentières,50.6881,2.8811,207.15256193319885
Quaregnon,50.4417,3.867,207.2468114461593
Fondettes,47.405,0.5997,207.28728404878473
Chambray-lès-Tours,47.3383,0.7144,208.07494986676915
Hazebrouck,50.725,2.5392,208.17853192257007
Tournai,50.6056,3.3881,208.22867425742925
Marcq-en-Baroeul,50.6711,3.0972,208.7245159799953
Marquette-lès-Lille,50.6764,3.0667,208.7444203302935
Cuesmes,50.4362,3.9207,208.7950688777508
Hem,50.6558,3.1886,208.87515701689608
Arques,50.7361,2.3033,209.00920430105882
Longuenesse,50.7364,2.2383,209.1728542867614
Joué-lés-Tours,47.3514,0.6625,209.17357087010188
Wasquehal,50.6694,3.1308,209.174028419091
Wambrechies,50.6861,3.0494,209.48854181512527
Sedan,49.7034,4.9388,209.91062673927095
Saint-Omer,50.7461,2.2617,210.19202425186123
Croix,50.6781,3.1508,210.49168926719628
Beloeil,50.5333,3.7167,210.67621568557854
Bailleul,50.7392,2.7333,211.1032394824596
Lys-lès-Lannoy,50.6722,3.2153,211.1741240942659
Mons,50.4547,3.9525,211.75271001896868
Bondues,50.7022,3.0939,212.0049608927652
Roubaix,50.6901,3.1817,212.3852580233779
Issoudun,46.9608,1.9944,212.49389677624617
Outreau,50.7044,1.5947,212.5287996216388
Leers,50.6825,3.2447,212.89314182958847
Mouvaux,50.7039,3.1414,213.06883965783732
Le Portel,50.7075,1.5744,213.23847129630707
Flers,48.7518,-0.5605,213.62213140957647
Wattrelos,50.7,3.217,214.16121105582965
Saint-Martin-Boulogne,50.7267,1.6328,214.24831370287507
Boulogne-sur-Mer,50.7264,1.6147,214.53275613121488
Estaimpuis,50.7,3.2667,215.22253724260096
Tourcoing,50.7239,3.1612,215.58869615303672
Nevers,46.9933,3.1572,215.70453179975163
Thuin,50.3398,4.2874,215.96683362181628
Walcourt,50.2534,4.4347,216.05223590464766
Binche,50.4103,4.1652,216.53042176014873
Comines,50.7616,3.0086,216.98664765285298
Philippeville,50.1964,4.5436,217.25687919871166
Mouscron,50.7333,3.2167,217.69529120384294
Neuville-en-Ferrain,50.7472,3.1589,218.03725122849346
Roncq,50.7544,3.1211,218.10639555500998
Jurbise,50.5333,3.9333,218.36626838875048
Wervik,50.7833,3.0333,219.7274397914821
Ath,50.6167,3.7667,220.519009350444
Anderlues,50.4073,4.2698,220.8948936950306
La Flèche,47.6959,-0.0747,221.15423018711857
Halluin,50.7836,3.1256,221.32565734788042
Chaumont,48.1117,5.1389,221.44797395069082
La Louvière,50.4667,4.1833,222.2902710933202
Menen,50.8,3.1167,222.93131038649813
Morlanwelz-Mariemont,50.45,4.2333,222.97780917660967
Poperinge,50.85,2.7333,223.32159858536355
Fontaine-l’Évêque,50.4092,4.3242,223.52562975018358
Montignies-le-Tilleul,50.3794,4.379,223.56211774727888
Wevelgem,50.8,3.1667,223.84004798233187
Verdun,49.162,5.3876,223.96393183319393
Florennes,50.2514,4.6044,224.58115674112082
Ieper,50.8508,2.885,224.99811174607046
Avelgem,50.7667,3.4333,226.09930598936717
Bissegem,50.8167,3.2167,226.5848281836198
Soignies,50.5667,4.0667,226.59464316456706
Chapelle-lez-Herlaimont,50.4667,4.2833,226.62997643308236
Mayenne,48.312,-0.6183,226.72410290441505
Zwevegem,50.8,3.3333,227.25032988943704
Gerpinnes,50.3369,4.5283,227.33039600594853
Manage,50.5,4.2333,227.3780804866054
Bayeux,49.2794,-0.7028,227.45077282953906
Sablé-sur-Sarthe,47.8505,-0.3292,227.5234653844426
Zonnebeke,50.8667,2.9833,228.03149700130197
Ledegem,50.85,3.1167,228.3174314384615
Marcinelle,50.3992,4.4469,228.41357184543182
Heule,50.8333,3.2333,228.6836596732981
Kortrijk,50.8275,3.2658,228.7212265990354
Ronse,50.75,3.6,228.77111631701024
Roux,50.4412,4.3926,229.3758592670121
Seneffe,50.5167,4.25,229.57110640419302
Charleroi,50.4167,4.4442,229.73273426095218
Courcelles,50.4667,4.3667,230.35867033604669
Moorslede,50.8833,3.0667,231.08922791764195
Écaussinnes-Lalaing,50.5667,4.1833,231.26059147740716
Kuurne,50.85,3.2833,231.47350848834864
Harelbeke,50.85,3.3,231.8214210979337
Braine-le-Comte,50.6,4.1333,232.28969640705895
Pont-à-Celles,50.5,4.35,232.47190871518464
Lessines,50.7167,3.8333,232.5427801783102
Châtelet,50.4039,4.5253,232.56168620342783
Mettet,50.3211,4.659,232.71261146633492
Châteauroux,46.8103,1.6911,232.835965593839
Deerlijk,50.85,3.35,232.89674836693223
Anzegem,50.8333,3.4667,233.8583349821772
Beauraing,50.1101,4.9564,234.1057312156185
Marck,50.9486,1.9508,234.3773826355317
Calais,50.9481,1.8564,235.24686211107263
Farciennes,50.4314,4.5475,235.8704603281817
Izegem,50.9167,3.2,236.97319879469867
Vire,48.84,-0.89,237.22854124361044
Gravelines,50.9858,2.1283,237.28682492712923
Roeselare,50.9333,3.1167,237.30848738918584
Enghien,50.6956,4.0411,237.72036833311253
Bertrix,49.8555,5.2566,237.85318004362068
Waregem,50.8833,3.4167,237.9044202987291
Ingelmunster,50.9167,3.25,237.91599058273061
Nivelles,50.5833,4.3167,238.31970537848912
Wielsbeke,50.9,3.3667,238.54433295545974
Geraardsbergen,50.7667,3.8667,238.5575890502284
Oudenaarde,50.85,3.6,239.00786664178818
Grande-Synthe,51.0139,2.3028,239.8957350057475
Saint-Amand-Montrond,46.7,2.51,240.10364454324008
Houthulst,50.9833,2.95,240.30671455260813
Fleurus,50.4843,4.5518,240.4153214645254
Petite-Synthe,51.0194,2.3467,240.48158978782752
Galmaarden,50.75,3.99,241.10029661631563
Coudekerque-Branche,51.0253,2.3917,241.15387496009296
Staden,50.9833,3.0167,241.20242111879665
Dinant,50.26,4.9101,241.61207623972933
Zulte,50.9167,3.4333,241.79478953178435
Saint-Pol-sur-Mer,51.0314,2.3439,241.816335898257
Ardooie,50.9667,3.1833,242.04681285969693
Meulebeke,50.95,3.2833,242.1225362898304
Hooglede,50.9833,3.0833,242.1873807599017
Dunkerque,51.0383,2.3775,242.58960225325927
Rosendaël,51.0413,2.4037,242.94436552893325
Tubize,50.693,4.2047,243.67924598483563
Virton,49.5677,5.5323,244.1310791821008
Yvoir,50.3264,4.8782,244.6339593915299
Diksmuide,51.0333,2.865,244.79096280543243
Braine-le-Château,50.6833,4.2667,245.25049410993023
Genappe,50.6,4.45,245.5645042525708
Laval,48.0733,-0.7689,246.03391491906916
Zottegem,50.8667,3.8,246.40805167859816
Veurne,51.0667,2.65,246.66175089130962
Kortemark,51.0333,3.0333,246.8821577707119
Villers-la-Ville,50.5833,4.5333,247.86000725037914
Profondeville,50.3777,4.8692,247.93500326242935
Tielt,51.0,3.3167,248.1167482534982
Lichtervelde,51.0333,3.1333,248.39285364300298
Halle,50.7361,4.2372,248.9357490492753
Braine-l’Alleud,50.6833,4.3667,249.34530936042302
Gavere,50.9333,3.6667,249.35667496720623
Torhout,51.05,3.1,249.6793634038277
De Panne,51.1,2.5833,249.9899983362103
Ninove,50.8333,4.0167,250.08769460653122
Koksijde,51.1,2.65,250.35027598236533
Gooik,50.8,4.1167,250.4060720151401
Herzele,50.8833,3.8833,250.6299720745595
Nazareth,50.9667,3.6,251.04908066861114
Deinze,50.9833,3.5333,251.12250472952252
Koekelare,51.0833,2.9667,251.45442840406844
Sint-Martens-Lennik,50.8,4.15,251.62110021964344
Wingene,51.05,3.2667,252.50192957945228
Rochefort,50.159,5.2231,252.83207713268754
Saint-Lô,49.12,-1.09,252.84688847698527
Nieuwpoort,51.1167,2.75,252.90367292444017
Château-Gontier,47.8286,-0.7028,253.05508835359942
Ichtegem,51.0928,3.0106,253.05870533908953
Saumur,47.26,-0.0769,253.18108998457078
Sint-Lievens-Houtem,50.9167,3.8667,253.44652568643332
Gembloux,50.561,4.697,253.63146342505598
Court-Saint-Étienne,50.6333,4.5667,253.6375061403482
Waterloo,50.7175,4.3979,253.71189930368814
La Bruyère,50.5,4.8,253.7613162307471
Sint-Pieters-Leeuw,50.7833,4.25,253.81283779756257
Beersel,50.7667,4.3,254.22317520109965
Namur,50.4667,4.8667,254.54040158719783
Sint-Genesius-Rode,50.75,4.35,254.68900781897082
Ciney,50.2963,5.1007,254.71965646114873
Oosterzele,50.95,3.8,254.80198466589192
Liedekerke,50.8667,4.0833,255.6195008322883
De Pinte,51.0,3.65,255.77906682467352
Hastings,50.85,0.57,255.8170258954468
Haaltert,50.9,4.0,256.03723540274643
Denderleeuw,50.8833,4.0667,256.65309297317197
Nevele,51.0333,3.55,256.7459411614753
Autun,46.9517,4.2994,256.76486194420096
Longwy,49.52,5.7606,258.4234470226671
Merelbeke,51.0,3.75,258.4631536049976
Louvain-la-Neuve,50.6696,4.6112,258.7471158818711
Gistel,51.15,2.9667,258.754969707808
Ternat,50.8667,4.1833,259.1726249102117
Zedelgem,51.1333,3.1333,259.22656851076096
Rixensart,50.7167,4.5333,259.3862531212839
Forest,50.8131,4.3247,259.4728632606883
Eastbourne,50.77,0.28,259.53250097562704
Talant,47.3372,5.0064,259.5882298646276
Melle,51.0,3.8,259.86869014857484
Fontaine-lès-Dijon,47.3433,5.0206,259.94108821749444
Dilbeek,50.845,4.265,260.1479319282823
Toul,48.675,5.8917,260.18157971764106
Mont-Saint-Martin,49.5411,5.78,260.39922891905314
Middelkerke,51.1833,2.8167,260.82441884195765
Folkestone,51.0792,1.1794,260.9691754406566
Hoeilaart,50.7667,4.4667,260.98644365102183
Aalst,50.9383,4.0392,261.08868662913375
Trélazé,47.446,-0.465,261.2843269878387
Drongen,51.0503,3.6628,261.3076260346226
Saint-Barthélemy-d’Anjou,47.468,-0.493,261.46013907423276
Anderlecht,50.8333,4.3333,261.6765300971725
Dijon,47.3167,5.0167,261.6846288882233
Gentbrugge,51.0314,3.7642,262.0631219200397
Lede,50.9667,3.9833,262.0685817979126
Ledeberg,51.0375,3.7425,262.09373981675236
Wetteren,51.0,3.8833,262.301970300662
Hythe,51.0716,1.084,262.4493743157579
Wavre,50.7147,4.6107,262.60307270934044
Jabbeke,51.15,3.2333,262.65821024073114
Oostkamp,51.15,3.2333,262.65821024073114
Beernem,51.1333,3.3333,262.6746799626184
Heusden,51.0281,3.8,262.7249270218268
Oudenburg,51.1833,3.0,262.81042581265405
Aubange,49.5667,5.805,262.91445207263865
Asse,50.9,4.2,262.94939088334667
Laarne,51.0167,3.85,263.00254473205564
Chenôve,47.2917,5.0081,263.06815788853385
Gent,51.0536,3.7253,263.2832635475611
Dover,51.1295,1.3089,263.4912250474791
Etterbeek,50.8333,4.3833,263.6387767081443
Brussels,50.8467,4.3525,263.6640667450134
Châtellerault,46.8178,0.5461,263.74663898279397
Chaumont-Gistoux,50.6839,4.6947,263.75401728526435
Moortebeek,50.8547,4.3386,263.86569977096644
Sint-Amandsberg,51.0539,3.7492,263.9562937626048
Mariakerke,51.0728,3.6761,263.9760453428895
Ganshoren,50.8667,4.3167,264.14075362692427
Marche-en-Famenne,50.2266,5.3437,264.1517439935566
Perwez,50.6241,4.815,264.4380457820844
Avrillé,47.5078,-0.5878,264.5629666569148
Overijse,50.7751,4.5372,264.70142541725494
Angers,47.4736,-0.5542,264.7640026580749
Jette,50.8667,4.3333,264.7765939332294
Koekelberg,50.8667,4.3333,264.7765939332294
Wichelen,51.0,3.9667,264.85017274033197
Lovendegem,51.1,3.6,264.911126902143
Destelbergen,51.05,3.8,264.9551598089446
Moulins,46.5653,3.3333,265.1489998068663
Sint-Joost-ten-Node,50.85,4.3833,265.1746794365617
Yzeure,46.5669,3.3553,265.43813466788083
Polegate,50.8216,0.2442,265.6621645881428
Les Ponts-de-Cé,47.4253,-0.5242,266.2125013512369
Schaarbeek,50.8675,4.3736,266.40999809509304
Longvic,47.2886,5.0644,266.4484955989419
Sint-Michiels,51.1886,3.2117,266.4615278605468
Ostend,51.2258,2.9194,266.5254860324529
Éghezée,50.5925,4.9104,266.5581841460799
Wondelgem,51.0889,3.7131,266.5960593302517
Laeken,50.8778,4.3558,266.6746713475896
Tervuren,50.8167,4.5,266.8550095118682
Sint-Andries,51.1972,3.1803,266.88514114939744
Quétigny,47.3153,5.1069,266.88746662828527
Fougères,48.3525,-1.1986,267.0073767305159
Seaford,50.77,0.1,267.1367433752941
Evere,50.8667,4.4,267.3695429441484
Wemmel,50.9078,4.3067,267.6111306094463
Arlon,49.6836,5.8167,267.62119292181177
Differdange,49.5222,5.8917,267.6278899834879
Bredene,51.2333,2.9667,267.8813945141106
Andenne,50.4833,5.1,267.95193214051017
Assebroek,51.1964,3.2536,268.0072294245032
Huldenberg,50.7895,4.585,268.0132185871762
Grez-Doiceau,50.7333,4.7,268.19194514338494
Berlare,51.025,4.0025,268.45742100203637
Opwijk,50.9667,4.1833,268.7525723992708
Villerupt,49.4697,5.9286,268.7995527354288
Wezembeek-Oppem,50.8442,4.4872,268.80917291705236
Bruges,51.2089,3.2242,268.8607954036653
Hailsham,50.8647,0.2577,269.0378072965066
Oostakker,51.1003,3.7633,269.09670132431654
Evergem,51.1167,3.7,269.129487284392
Strombeek-Bever,50.91,4.35,269.4519636916506
Chevigny-Saint-Sauveur,47.3025,5.1364,269.50023114920975
Lebbeke,51.0,4.1167,269.7050943977013
Neder-Over-Heembeek,50.9,4.3833,269.7973178067432
Sint-Kruis,51.2139,3.2503,269.83762373952385
Zaventem,50.8667,4.4667,270.0221766815755
Kraainem,50.8667,4.4667,270.0221766815755
Merchtem,50.9667,4.2333,270.5161410983335
Pont-à-Mousson,48.9053,6.0547,270.77089211249813
Lochristi,51.1,3.8333,270.981351159742
Meise,50.9333,4.3333,271.00420789857327
Sint-Gillis-bij-Dendermonde,51.0189,4.1058,271.19047241892724
Newhaven,50.8,0.06,271.49701310859433
Deal,51.2226,1.4006,271.7056437077326
Maldegem,51.2,3.4333,271.7580639668763
De Haan,51.2667,3.0333,272.351064787465
Avranches,48.685,-1.3556,272.3705586837738
Dendermonde,51.0333,4.1,272.411509453073
Eeklo,51.1833,3.55,272.4826347208836
Buggenhout,51.0,4.2,272.54640181175876
Grimbergen,50.9333,4.3833,272.8953824848057
Kingsnorth,51.1178,0.8615,273.06351962499673
Esch-sur-Alzette,49.4969,5.9806,273.1593428616826
Machelen,50.9167,4.4333,273.2854753750173
Zele,51.0667,4.0333,273.56721616521696
Damme,51.25,3.2667,274.00903962278653
Vilvoorde,50.9333,4.4167,274.17746047376625
Vitré,48.1242,-1.2081,274.69330065629134
Kortenberg,50.8865,4.5412,274.8396313845661
Bastogne,50.0042,5.72,274.9155108837041
Hayange,49.33,6.0628,275.2299579950735
Beaune,47.025,4.8397,275.3183919563616
Lokeren,51.1,3.9833,275.3472903975349
Redange-sur-Attert,49.7652,5.8894,275.5725321309894
Oud-Heverlee,50.8371,4.6639,275.5911420634806
Jodoigne,50.7276,4.8723,275.65442419316065
Ashford,51.1465,0.8676,275.82418453884736
Londerzeel,51.0,4.3,276.0886797905252
Rombas,49.2503,6.095,276.20470414420873
Steenokkerzeel,50.9188,4.5114,276.5673866167349
Le Creusot,46.8014,4.4411,276.64539451426504
Ertvelde,51.1783,3.7447,276.64561750664376
Bertem,50.8671,4.6361,277.0511309191082
Blankenberge,51.3,3.1167,277.10119317536
Wanze,50.5353,5.2133,277.7880596013075
Domérat,46.3611,2.5353,277.8370879538725
Huy,50.5201,5.2375,277.9763494030173
Zemst,50.9722,4.4222,278.0071129608251
Fameck,49.3,6.11,278.07403457618875
Capellen,49.6444,5.9897,278.1351927242094
Hamme,51.0833,4.1333,278.41351395159217
Marly,49.0599,6.154,278.46359823030355
Durbuy,50.3523,5.4568,278.72190739819456
Heverlee,50.86,4.69,278.72611980884346
Montigny-lès-Metz,49.1006,6.1539,278.746985261054
Bierbeek,50.8276,4.7585,278.9003633271105
Woippy,49.1519,6.1522,279.09426091297917
Florange,49.3222,6.1192,279.119836921935
Laxou,48.6864,6.1528,279.138587327876
Villers-lès-Nancy,48.6731,6.1547,279.41836500298785
Waasmunster,51.1097,4.0847,279.45456482025946
Maxéville,48.7122,6.1639,279.6989877463212
Amnéville,49.2614,6.1425,279.7870961350235
Dudelange,49.4833,6.0833,280.02742129043986
Kapelle-op-den-Bos,51.0167,4.3667,280.1058631486574
Lewes,50.8747,0.0117,280.13429205884995
Kampenhout,50.9413,4.5496,280.15141793321675
Montluçon,46.3408,2.6033,280.38768880773796
Maizières-lès-Metz,49.2125,6.1617,280.48445088921886
Vandœuvre-lès-Nancy,48.6567,6.1683,280.596276230164
Metz,49.1203,6.1778,280.6476902911627
Zelzate,51.2,3.8167,280.76431975262574
Hannut,50.672,5.0781,281.1684498040225
Nancy,48.6936,6.1846,281.3901896607706
Hagondange,49.255,6.1686,281.5685903535371
Brighton,50.8208,-0.1375,282.05922752679356
Wilsele,50.8945,4.6982,282.1144551592873
Herent,50.9081,4.6706,282.1481857746987
Assenede,51.2333,3.75,282.473750149185
Sluis,51.3089,3.3883,282.50819802561386
Puurs,51.0761,4.2803,282.6801336074856
Saint-Max,48.7017,6.2072,282.96336036261704
Jarville-la-Malgrange,48.67,6.2067,283.25213623541225
Knokke-Heist,51.3333,3.2833,283.2751713539735
Thionville,49.3589,6.1692,283.37152302473345
Bornem,51.1,4.2333,283.37674582097173
Thouars,46.9758,-0.2142,283.3794843063611
Ramsgate,51.336,1.416,283.65194625913824
Tomblaine,48.6833,6.2167,283.8412794097959
Temse,51.1167,4.2,283.8865485323164
Essey-lès-Nancy,48.7067,6.2231,284.07861577470044
Canterbury,51.28,1.08,284.3344280677705
Amay,50.5478,5.3192,284.3694736101042
Boortmeerbeek,50.9817,4.5718,284.7253662008729
Yutz,49.3594,6.1892,284.80800762469374
Kessel-Lo,50.9,4.75,284.82200945613044
Willebroek,51.0667,4.3667,284.8485901913948
Uckfield,50.97,0.1,284.97118828003124
Hove,50.8352,-0.1758,285.0210562157995
Tienen,50.8075,4.9372,285.3222417287497
Mechelen,51.0281,4.4803,285.4344508998268
Broadstairs,51.3589,1.4394,285.73912948680874
Montceau-les-Mines,46.6678,4.3697,286.29977976085974
Patcham,50.864,-0.15,286.3038076552362
Boom,51.0833,4.3667,286.42966921175673
Sint-Niklaas,51.1667,4.1333,286.641259325225
Wiltz,49.9661,5.9325,286.8551792583142
Stekene,51.2,4.0333,286.8839303991711
Holsbeek,50.9208,4.7569,286.94389675699824
Luxembourg,49.6117,6.1319,286.94893069830795
Haacht,50.977,4.6384,286.98700961801507
Lubbeek,50.8817,4.8414,287.2406460961978
Bonheiden,51.0224,4.5479,287.5165964959603
Rotselaar,50.9511,4.7108,287.6632913236158
Landen,50.7547,5.0814,287.886008470843
Southwick,50.836,-0.239,287.9892208092969
Rumst,51.0833,4.4167,288.24354868306597
Niel,51.1167,4.3333,288.44126001406096
Granville,48.8374,-1.5939,288.7283106986204
Saint-Vallier,46.6428,4.3719,288.77110760364
Keerbergen,51.0031,4.6311,289.05523712560114
Mersch,49.75,6.1,289.2810869691614
Shoreham-by-Sea,50.834,-0.273,289.400494063362
Cliftonville,51.3881,1.4046,289.46548992645575
Margate,51.385,1.3838,289.48062219021483
Birchington,51.377,1.305,290.0124439633493
Crowborough,51.06,0.16,290.8583681589439
Tremelo,50.9918,4.7039,291.0110136769575
Sint-Katelijne-Waver,51.0667,4.5333,291.0540881375632
Sint-Gillis-Waas,51.2167,4.1167,291.08924481322794
Lancing,50.832,-0.319,291.39011948410894
Aartselaar,51.1333,4.3833,291.79887647389694
Kruibeke,51.1667,4.3,292.1209337464818
Waremme,50.6967,5.2569,292.12913253911984
Sompting,50.8303,-0.3395,292.2180835495785
Hemiksem,51.15,4.35,292.2292446137859
Buxerolles,46.5983,0.35,292.361004636313
Worthing,50.8147,-0.3714,292.46075414465685
Duffel,51.0957,4.5056,292.71004630500164
Herne Bay,51.37,1.13,292.7283948684202
Faversham,51.3177,0.8928,292.7741715183411
Liffré,48.2142,-1.5067,292.9329964350504
Burgess Hill,50.9535,-0.1262,292.98947883063653
Beveren,51.2,4.25,293.69443568302404
Broadwater,50.8282,-0.3742,293.6948893574368
Royal Tunbridge Wells,51.132,0.263,293.7622273813519
Lint,51.1167,4.4833,293.851522466041
Putte,51.0566,4.6292,293.8593838387451
Whitstable,51.361,1.026,294.0742498295393
Kontich,51.1333,4.45,294.1982845817897
Dombasle-sur-Meurthe,48.6256,6.3506,294.2874434197051
Hoboken,51.1667,4.3667,294.4197691067838
Poitiers,46.58,0.34,294.50511690305353
Terneuzen,51.3333,3.8333,294.94042461041835
Wilrijk,51.1667,4.3833,295.0010636368871
Lint,51.1275,4.4962,295.347195391789
Hulst,51.28,4.0528,295.51331112018073
Edegem,51.15,4.45,295.78404529815157
Flémalle-Haute,50.6011,5.4628,295.94733715617735
Aarschot,50.9875,4.8333,296.08415585129904
Haywards Heath,51.0048,-0.0979,296.28852512291536
Southborough,51.1598,0.2652,296.3272064682858
Begijnendijk,51.0191,4.7831,296.74911720324627
Melsele,51.2209,4.2815,296.78107845588386
Chalon-sur-Saône,46.7806,4.8528,296.86945268231244
Esneux,50.5333,5.5667,296.96131359635046
Clervaux,50.05,6.0333,297.28866864191696
Diekirch,49.8681,6.1567,297.5403526905501
Sint-Truiden,50.8156,5.1868,297.9045694911012
Mortsel,51.1667,4.4667,297.97576749618634
Zwijndrecht,51.2167,4.3333,298.10689863984953
Boechout,51.1594,4.4923,298.215619133596
Tourlaville,49.6417,-1.5775,298.2519373032224
Paray-le-Monial,46.4519,4.1203,298.3779245206605
Maidstone,51.272,0.529,298.414533058474
Lierre,51.1311,4.5697,298.4412809577494
Seraing,50.5986,5.5122,298.4610943409722
Rustington,50.8102,-0.5052,298.5929144476431
Aywaille,50.4724,5.6734,298.973772474568
Angmering,50.8288,-0.4846,299.06729989906404
Sittingbourne,51.34,0.74,299.0994961650615
Berchem,51.2,4.4167,299.3725173348605
Heist-op-den-Berg,51.0758,4.7286,299.5928482153415
Perl,49.4667,6.3667,299.64445298071155
Tonbridge,51.1987,0.2764,299.64600692783813
Thorigné-Fouillard,48.1603,-1.5786,299.7086503894285
Littlehampton,50.8094,-0.5409,300.2916336517175
Sprimont,50.5053,5.6618,300.4594026905374
Antwerp,51.2178,4.4003,300.5116283221976
Berlaar,51.1179,4.658,300.6224353680034
Awans,50.6669,5.4633,300.70497988703715
Guéret,46.1714,1.8692,300.7852128510062
Cherbourg,49.63,-1.62,300.8605653207178
Boxley,51.3024,0.5429,301.0156670836034
Janzé,47.9614,-1.4978,301.06839378267085
Borsbeek,51.1932,4.4879,301.26146485070973
Vlissingen,51.45,3.5833,301.39458980494936
Remich,49.5444,6.3667,301.4941804401513
Borgerhout,51.2167,4.4333,301.55925693198884
Scherpenheuvel,50.9797,4.9764,301.66665508925166
Vianden,49.9,6.2,301.7057906165523
Hulshout,51.075,4.7901,302.0363101624024
Saint-Nicolas,50.6302,5.5373,302.05944907713695
Montegnée,50.6333,5.5333,302.06155540440506
Octeville,49.6269,-1.6431,302.3782887871224
Cesson-Sévigné,48.1217,-1.6025,302.6462724971241
Aylesford,51.3033,0.4796,303.0679060835552
Deurne,51.2247,4.4625,303.3570354696956
Châteaubriant,47.7178,-1.375,303.41433320299757
Ans,50.6625,5.52,303.42548014701833
Wommelgem,51.2031,4.5227,303.46446725784824
Betton,48.1833,-1.6428,303.5733399462224
Ranst,51.1896,4.5634,303.6872797486531
East Grinstead,51.1286,-0.0144,304.0030017033127
Chaudfontaine,50.5818,5.634,304.0220840570482
Herselt,51.0537,4.8828,304.0268596171335
Merksem,51.2428,4.4414,304.35057203419154
Felpham,50.7905,-0.6539,304.48642485760263
Liège,50.6397,5.5706,304.54415610936445
Borgloon,50.8022,5.3433,304.62956982137
Chantepie,48.0892,-1.6153,304.63627424104556
Rainham,51.36,0.61,304.8008658219844
Dole,47.0931,5.4906,304.9728234592295
Bognor Regis,50.7824,-0.6764,305.0110871568246
Nijlen,51.1611,4.6703,305.08617001651993
Halen,50.9481,5.1144,305.2698340352658
Diest,50.9847,5.0514,305.46117396638476
Minster,51.421,0.809,305.59426718485213
Wijnegem,51.2272,4.52,305.65358170759185
Lunéville,48.5894,6.5017,305.7964619777124
Herenthout,51.1395,4.7559,306.4773953062793
Snodland,51.328,0.4467,306.55270091320125
Schoten,51.25,4.5,307.1087175290491
Herk-de-Stad,50.9406,5.1672,307.1127323586301
Edenbridge,51.197,0.065,307.23382357919803
Middelburg,51.4997,3.6136,307.2958681208132
Beyne-Heusay,50.6167,5.65,307.3039257394342
Selsey,50.735,-0.7898,307.3307231999686
Ekeren,51.2833,4.4167,307.4048920665613
Juprelle,50.7101,5.5304,307.422408770028
Saint-Grégoire,48.1517,-1.685,307.5511863030754
Worth,51.113,-0.147,307.9762018081655
Rennes,48.1147,-1.6794,308.3316418886756
Bressuire,46.8408,-0.4872,308.4051386380176
Chatham,51.37,0.52,308.4714631570427
Westerlo,51.0897,4.9153,308.5853433086106
Alken,50.8757,5.3079,308.6255376518353
Sheerness,51.441,0.76,308.9256455348241
Schilde,51.2389,4.5815,309.0034316748435
Southwater,51.0238,-0.3526,309.04158599495605
Tongeren,50.7807,5.4623,309.0723611192899
Gillingham,51.385,0.55,309.08006399623775
Fléron,50.6167,5.6833,309.15194015104464
Crawley,51.1092,-0.1872,309.31326162668535
Herstal,50.6644,5.63,309.5243881512722
Rochester,51.375,0.5,309.57735465228654
Golbey,48.1967,6.4381,309.668493801206
Zandhoven,51.215,4.6608,309.7244846639441
Sevenoaks,51.2781,0.1874,310.3989549981548
Grevenmacher,49.6806,6.4417,310.49268289876517
Grobbendonk,51.1919,4.7386,310.58763900697954
Stabroek,51.3333,4.3667,310.5943376630785
Brasschaat,51.2914,4.495,310.8971792504239
Theux,50.5352,5.8132,311.0779540781562
Olen,51.1439,4.8597,311.08874532083274
Horsham,51.062,-0.325,311.0977892425021
Kapellen,51.3167,4.4333,311.20755429261965
Épinal,48.1744,6.4512,311.2645603747168
Spa,50.4924,5.8648,311.3410542027399
Ifield,51.1234,-0.2073,311.41846163048217
Strood,51.393,0.478,312.0457304558883
Lummen,50.9862,5.1927,312.0783013540897
Soumagne,50.6124,5.7469,312.41156812893433
Chartres-de-Bretagne,48.0403,-1.7028,312.5044583312428
Pepinster,50.5662,5.8038,312.5572184910403
Cholet,47.06,-0.8783,312.6500511365042
Saint-Jacques-de-la-Lande,48.0656,-1.7186,312.74548478442193
Herentals,51.1767,4.8364,313.0956246422388
Vesoul,47.6231,6.1558,313.2584399336862
Parthenay,46.6462,-0.2478,313.3278185700258
Echternach,49.8117,6.4217,313.3631359317461
Goes,51.5,3.8833,313.47321194567195
Oupeye,50.71,5.6449,313.56078620240817
Cusset,46.1353,3.4572,313.77697490851716
Vichy,46.1278,3.4267,313.98638016614564
Pacé,48.1477,-1.7739,314.0093341355563
Tessenderlo,51.0679,5.0891,314.24793830972203
Chichester,50.8365,-0.7792,314.39332178017554
Hasselt,50.9304,5.3383,314.4704527407431
Horley,51.174,-0.172,314.48012426977175
Sint-Job-in-’t-Goor,51.3017,4.5691,314.5102393345914
Bellerive-sur-Allier,46.1175,3.4044,314.67051141273623
Saint-Vith,50.2797,6.1275,314.8399610102517
Bassenge,50.7583,5.6094,315.133762500462
Kapelle,51.5,3.95,315.15493585333724
Blegny,50.6667,5.7333,315.35971475601997
Hoeselt,50.85,5.4833,315.40807797366705
Oxted,51.257,-0.006,315.5225890449739
Paal,51.0392,5.1728,315.58766103774303
Mauléon,46.9236,-0.7483,315.62208408781294
Bruz,48.0256,-1.7447,315.97728093940583
Diepenbeek,50.9072,5.4175,316.52743942202153
Zoersel,51.2675,4.7126,316.5842004848852
Le Rheu,48.1028,-1.7942,316.8706377498057
Herve,50.6394,5.7942,316.8855184235253
Merzig,49.45,6.6167,317.0303863993208
Malmédy,50.4261,6.0303,317.1132033487425
Verviers,50.5835,5.8641,317.1326365818347
Mettlach,49.4942,6.6052,317.13895992137384
Shoeburyness,51.5316,0.7978,317.3312684688639
Creutzwald,49.2,6.6833,318.0298130994491
Woensdrecht,51.43,4.305,318.15376420421654
Paramé,48.6603,-1.9792,318.21355623391156
Lille,51.2383,4.8242,318.21406530945933
Visé,50.737,5.6958,318.2353423282949
Dison,50.6098,5.8543,318.29959665246696
Riemst,50.8089,5.6019,318.45093142200227
Geel,51.1661,4.9919,318.58131593925174
Beringen,51.0507,5.2216,318.7912621907475
Kalmthout,51.3833,4.4667,318.80466099740494
Bilzen,50.873,5.5163,318.8483321450014
Saint-Avold,49.1044,6.7067,318.933456737802
Biggin Hill,51.3127,0.0336,319.2541112026051
Meerhout,51.132,5.0773,319.25852940335716
Überherrn,49.25,6.7,319.7919993713837
Rehlingen-Siersburg,49.3686,6.6786,319.9541889307962
South Hayling,50.78,-0.97,320.1717310087647
Chelsfield,51.3582,0.1278,320.17344993990565
Gravesend,51.4415,0.3685,320.26138920942185
Redhill,51.2393,-0.1726,320.4095517156379
Caterham,51.2803,-0.0816,320.5833898663471
Konz,49.7,6.5833,320.88469944315756
Zonhoven,50.9914,5.3709,320.94963815099686
Northfleet,51.44,0.34,321.01365243604994
Saint-Servan-sur-Mer,48.6361,-2.0147,321.0797705294451
Jalhay,50.5572,5.9642,321.214178116403
Shanklin,50.6333,-1.175,321.2772337661042
Southend,51.55,0.71,321.4587183452464
Guichen,47.9681,-1.7939,321.5191013468504
Reigate,51.237,-0.206,321.54817695600025
Brecht,51.3494,4.6394,321.5776887258721
Saint-Malo,48.6494,-2.0261,321.76127366897543
Beckingen,49.3928,6.7008,321.95456193778966
Eijsden,50.7778,5.7108,321.96080506897846
Leigh-on-Sea,51.5425,0.6535,322.1713972981345
Farnborough,51.3591,0.0741,322.1717814070951
Tilbury,51.4606,0.3582,322.47817167869476
Orpington,51.3741,0.0986,322.7277666413748
Wallerfangen,49.3128,6.735,323.13882377039755
Emsworth,50.849,-0.938,323.54407976896465
Dillingen,49.35,6.7333,323.5733290056147
Wuustwezel,51.3922,4.5942,324.0511951312231
Kasterlee,51.2407,4.9669,324.1869436264574
Saarlouis,49.3167,6.75,324.2728839637338
Cranleigh,51.1363,-0.4784,324.2786749173456
Dinard,48.63,-2.06,324.46174449977434
Hadleigh,51.5535,0.6095,324.4828748973087
Grays,51.475,0.33,324.791743747092
Wadgassen,49.2667,6.7667,324.8071535967967
Rochford,51.5821,0.7065,324.86156635671756
Bergen op Zoom,51.5,4.3,324.9749307669024
Genk,50.9653,5.5006,325.2124057709847
Kenley,51.3242,-0.0969,325.23824397722825
Dartford,51.4444,0.2172,325.44105835041876
Mol,51.1842,5.1156,325.4631623569737
Sanderstead,51.3358,-0.0818,325.7406332103051
Stanford le Hope,51.514,0.4244,325.77277189692245
Tholen,51.5322,4.2206,325.8513251291327
Leopoldsburg,51.1177,5.2541,325.9078779639206
Hayes,51.378,0.0192,325.9501491537995
Rijkevorsel,51.3489,4.7597,325.96271336618594
Nort-sur-Erdre,47.4403,-1.4972,326.07864322462717
Havant,50.8517,-0.9842,326.16383239134854
Nalbach,49.3667,6.7667,326.2328542486745
Dinan,48.4564,-2.0489,326.2727747902462
Dorking,51.2325,-0.3306,326.2798273781954
Besançon,47.24,6.02,326.51750851950413
Coulsdon,51.3211,-0.1386,326.5583064385989
Trier,49.7567,6.6414,326.6190706852975
Bitburg,49.9667,6.5333,326.6384082225971
Balen,51.1708,5.1697,326.662716812941
Thundersley,51.57,0.59,326.70021567235256
Hawkwell,51.5921,0.6737,326.7391386841244
Beerse,51.3191,4.8555,326.8597310439664
Ryde,50.7271,-1.1618,326.8686823142202
Essen,51.4667,4.4667,326.94384634373796
Maastricht,50.8667,5.6833,326.9954220195805
Burnham on Crouch,51.6284,0.8145,327.00371744788646
Bickley,51.4003,0.0466,327.08033151144525
Crayford,51.4491,0.1812,327.10338228743177
Vosselaar,51.3081,4.8883,327.1348514694056
Lanaken,50.8925,5.6497,327.17371284948115
Chislehurst,51.412,0.075,327.18777954172816
West Wickham,51.3765,-0.0193,327.2166990987923
Saint Helier,49.1858,-2.11,327.3830705097
Sidcup,51.4263,0.1024,327.598154087908
Rayleigh,51.5864,0.6049,327.9737045159709
Tadworth,51.294,-0.242,328.1635592113744
Welkenraedt,50.6606,5.9714,328.2993283526354
Portsmouth,50.8058,-1.0872,328.31018322517014
Vallet,47.1622,-1.2656,328.4728864182841
Vange,51.5601,0.4872,328.57221621859804
Le Loroux-Bottereau,47.2389,-1.3478,328.5867502736522
Schwalbach,49.2833,6.8167,328.62017775794766
Bromley,51.407,0.021,328.6366929109929
Hockley,51.6014,0.6363,328.6752044281004
Gosport,50.79,-1.12,328.96072660940354
Shirley,51.3813,-0.0543,328.9626152478678
Pitsea,51.569,0.504,328.9935224747414
Hilsea,50.83,-1.07,329.12562904521553
Banstead,51.322,-0.204,329.2003087687006
Völklingen,49.25,6.8333,329.41311681432757
Bexleyheath,51.459,0.138,329.52660501520205
Cosham,50.8424,-1.066,329.80947657323634
Zierikzee,51.6497,3.9164,329.85823471215144
Eupen,50.6333,6.0333,330.06355236187585
Dessel,51.2396,5.1131,330.20622986601023
Erith,51.48,0.1778,330.2244725057634
Croydon,51.3727,-0.1099,330.24346772222145
Beckenham,51.408,-0.022,330.2899329134835
South Ockendon,51.5207,0.2956,330.4002423360327
Basildon,51.58,0.49,330.5065244820161
Welling,51.4594,0.1097,330.5339945701584
Waterlooville,50.88,-1.03,330.6565181808355
Wallington,51.3647,-0.1403,330.65730105641177
Saarwellingen,49.35,6.8333,330.74698183886164
Merksplas,51.358,4.8634,330.7555403592387
Turnhout,51.3231,4.9483,330.8842074401951
Hoogstraten,51.4008,4.7611,330.8848195666135
Margraten,50.8225,5.8203,331.04839595182517
Haslemere,51.09,-0.712,331.1340448952412
Retie,51.2658,5.0828,331.23949453240556
Horndean,50.9136,-0.9961,331.38609128100745
Eltham,51.451,0.052,331.73281675510884
Carshalton,51.3652,-0.1676,331.7529542560254
Oud-Turnhout,51.318,4.9823,331.78447072674265
Leatherhead,51.295,-0.329,331.79177199683113
Schmelz,49.4167,6.8333,331.84071282855354
Ashtead,51.31,-0.299,331.915061139538
Laindon,51.574,0.4181,331.98440161491607
Meerssen,50.8858,5.7519,332.00319331244305
Great Bookham,51.278,-0.373,332.0968886907188
Newport,50.701,-1.2883,332.1772475354514
Thouaré-sur-Loire,47.2683,-1.4394,332.48838170400944
Portchester,50.842,-1.12,332.6653528181987
Plombières,50.7372,5.9596,332.7487679523918
Thornton Heath,51.4002,-0.1086,332.7616328772312
Epsom,51.3331,-0.2686,332.7809026038813
Wickford,51.6114,0.5207,332.83081846168506
Sutton,51.3656,-0.1963,332.90157628552134
Cheam,51.36,-0.21,332.92057629443985
Roosendaal,51.5314,4.4556,332.94314071301125
Little Bookham,51.2804,-0.3897,333.00868532088447
Püttlingen,49.2833,6.8833,333.41960084121206
Ewell,51.35,-0.249,333.53975861994826
Forbach,49.19,6.9,333.62138938435766
Kidbrooke,51.4621,0.0273,333.6659443239974
Catford,51.4452,-0.0207,333.76818612666386
Zundert,51.4703,4.66,333.8498500718085
Steenbergen,51.5842,4.3194,333.9895839823796
Carquefou,47.2975,-1.4914,334.0026793083833
Plumstead,51.49,0.09,334.16531384360775
Les Herbiers,46.87,-1.01,334.1771935669104
Riom,45.8944,3.1133,334.3362993919859
La Calamine,50.7161,6.0142,334.39486746935404
Mitcham,51.4009,-0.1517,334.45479511641156
Godalming,51.1855,-0.6155,334.6199258362201
Woolwich,51.488,0.063,334.9029797590265
Petersfield,51.0038,-0.9374,335.26171296090126
Upminster,51.5557,0.2512,335.26529628435605
Worcester Park,51.3752,-0.239,335.4518620616107
Opglabbeek,51.0434,5.5835,335.4567184805534
Riegelsberg,49.2833,6.9167,335.82703650652303
Stiring-Wendel,49.2,6.93,335.88550389505883
Streatham,51.4279,-0.1235,335.9118636873876
Wadern,49.5167,6.8667,336.1497031169742
Morden,51.4015,-0.1949,336.16202842568185
Arendonk,51.3226,5.0845,336.3689856383605
Peer,51.133,5.453,336.3852368043844
Rucphen,51.5325,4.5583,336.3979883086384
Fareham,50.85,-1.18,336.4630951686819
Sainte-Luce-sur-Loire,47.2503,-1.4856,336.5005578533273
Hornchurch,51.5565,0.2128,336.57036514023434
Heusweiler,49.35,6.9167,336.73308222524247
Cowes,50.7595,-1.3002,336.7700716937245
Guildford,51.2365,-0.5703,336.9486283026227
Ravels,51.3708,4.9926,336.99367795406135
Lebach,49.41,6.91,337.20605162760944
Dagenham,51.5397,0.1422,337.22985759782796
Basse-Goulaine,47.2161,-1.4642,337.27403473088754
Clacton-on-Sea,51.7918,1.1457,337.4071733324473
Billericay,51.628,0.4184,337.4169080730388
Riorges,46.0436,4.0414,337.58441793879643
La Chapelle-sur-Erdre,47.2997,-1.5517,337.70723884691245
Raynes Park,51.4033,-0.2321,337.7659102665697
Mechelen-aan-de-Maas,50.9967,5.7025,337.780697551396
Raeren,50.6833,6.1167,338.0764159113217
Cobham,51.329,-0.409,338.1371118153518
Lommel,51.2317,5.311,338.14821721155647
Vaals,50.7694,6.0181,338.19362489543505
Beek,50.9394,5.7961,338.28083013486037
Balham,51.4434,-0.1525,338.4483703652446
Brixton,51.4575,-0.1175,338.46611272954516
Wimbledon,51.422,-0.208,338.5631657921595
Monschau,50.56,6.2564,338.5843261038001
Stein,50.9679,5.7652,338.8060387237758
Sint Willebrord,51.5483,4.5881,338.9299404229731
Mâcon,46.3063,4.8313,339.0736988315491
Roanne,46.0367,4.0689,339.0796024459515
Barking,51.54,0.08,339.3444281040482
East Ham,51.5323,0.0554,339.4373676691749
Romford,51.5768,0.1801,339.6214304441065
Surbiton,51.394,-0.307,339.8555484420035
Esher,51.3691,-0.365,339.92691853508177
Brentwood,51.62,0.305,339.98057812556823
Saint-Sébastien-sur-Loire,47.2081,-1.5014,340.0996383392132
Thames Ditton,51.389,-0.331,340.35750421368095
Goodmayes,51.5631,0.1133,340.4718354175448
Treillières,47.3319,-1.6256,340.5553409740403
Vertou,47.1689,-1.4697,340.588831050692
Simpelveld,50.8339,5.9814,340.5984744813371
Lons-le-Saunier,46.6744,5.5539,340.74659587417807
Roetgen,50.65,6.2,340.77339019630915
Oudenbosch,51.5892,4.5239,340.8276430173756
Eppelborn,49.3833,6.9667,340.8278442195229
Ilford,51.5575,0.0858,340.8467895797353
Cébazat,45.8322,3.1006,340.9985254401101
Wandsworth,51.455,-0.192,341.0191846638808
Kingston upon Thames,51.4103,-0.2995,341.04695602449675
Voerendaal,50.8825,5.9272,341.0853197359379
Maldon,51.7318,0.6758,341.13143772300566
Nuth,50.9167,5.8833,341.20304778926067
West Ham,51.534,0.008,341.23699212438163
Saarbrücken,49.2333,7.0,341.2754945452187
Hersham,51.3681,-0.4008,341.2970858551914
Stepney,51.5152,-0.0462,341.3433509330209
Walton-on-the-Naze,51.848,1.268,341.3857442068837
Blain,47.4769,-1.7622,341.47395487587744
Woking,51.305,-0.539,341.5171540704355
Brightlingsea,51.81,1.03,341.52285838562
Lambeth,51.49,-0.119,341.58215560364084
Overpelt,51.2111,5.4256,341.5879947343419
Couzeix,45.8769,1.2389,341.77192743902634
Gerzat,45.8267,3.1456,342.1776176187792
Aachen,50.7756,6.0836,342.2740726880984
Stratford,51.5423,-0.0026,342.40341147689884
Spitalfields,51.5166,-0.075,342.5056781968764
Westminster,51.4947,-0.1353,342.6236757478719
Etten-Leur,51.5706,4.6356,342.69133199526186
Nantes,47.2181,-1.5528,342.7076929306573
Molesey,51.401,-0.363,342.7299306605045
Weybridge,51.362,-0.453,342.90564737171627
Hackney,51.541,-0.027,343.13135171382396
Neerpelt,51.2272,5.4317,343.2163751825673
Kleinblittersdorf,49.1583,7.0361,343.2272492944563
Richterich,50.8086,6.0625,343.32756365980555
Schinnen,50.9428,5.8894,343.4282316087048
Walton upon Thames,51.3868,-0.4133,343.48806640107824
London,51.5072,-0.1275,343.5165780103598
Teddington,51.424,-0.332,343.5835803521663
Fulham,51.4828,-0.195,343.7259048238046
Orvault,47.2717,-1.6225,343.8849531251784
Bree,51.1414,5.598,343.97187915013586
Simmerath,50.6069,6.3,343.9929450338721
Heerlen,50.8833,5.9833,344.16948559394797
Great Baddow,51.719,0.507,344.18520523407267
Holborn,51.5204,-0.1136,344.25865551337347
Saint-Dié-des-Vosges,48.28,6.95,344.2757662816011
Sarrebourg,48.74,7.05,344.28170541900107
Fawley,50.828,-1.352,344.3158203136545
Panazol,45.8397,1.3108,344.5180426215786
Horsell,51.3286,-0.5617,344.5546859280874
Heerlerbaan,50.8692,6.0102,344.63780439755254
Quierschied,49.3167,7.0333,344.65141140349107
Wanstead,51.5778,0.0286,344.75144393749537
Hampton,51.422,-0.367,344.79532556692936
Brand,50.7489,6.165,345.10003650542853
Merchweiler,49.35,7.0333,345.1068045794258
Addlestone,51.3695,-0.4901,345.11930161624656
Kensington,51.5,-0.19,345.1477658867866
Richmond,51.456,-0.301,345.29661384018334
Illingen,49.3667,7.0333,345.34989223163564
Sarreguemines,49.11,7.07,345.37421513331014
Rezé,47.1917,-1.5694,345.37986837094985
Thiers,45.8572,3.5483,345.4718942918939
Leyton,51.57,-0.015,345.49736151511974
Farnham,51.215,-0.799,345.5044321452731
Bocholt,51.1729,5.5792,345.61776665367717
Les Sorinières,47.1472,-1.5286,345.62271047116695
Shepperton,51.39,-0.46,345.6936781545108
Hammersmith,51.4928,-0.2229,345.7093714682465
Bladel,51.3667,5.2167,345.80259136746434
Limoges,45.8353,1.2625,345.84005104254436
Chelmsford,51.73,0.48,346.04233710596094
Haaren,50.7956,6.1269,346.04339157657415
Chantenay-sur-Loire,47.207,-1.595,346.04683122563324
Twickenham,51.449,-0.337,346.0650428412607
Islington,51.544,-0.1027,346.10441193540714
Snaresbrook,51.587,0.0146,346.11864671616195
Clermont-Ferrand,45.7831,3.0824,346.1678581415553
Sittard,51.0,5.8667,346.46297219982785
Aldershot,51.2483,-0.7614,346.5448240449727
Pont-du-Château,45.7992,3.2492,346.6278434551252
Sulzbach,49.2833,7.0667,346.64290239218974
Highbury,51.552,-0.097,346.6611592415882
Schaesberg,50.8944,6.0158,346.7141902221461
Middelharnis,51.7535,4.1647,346.849606532025
Chamalières,45.7744,3.0678,346.95104198314607
Eilendorf,50.7794,6.1625,346.9673565811037
Tholey,49.4667,7.0333,347.00971118275356
Walthamstow,51.584,-0.021,347.0524145106487
Sautron,47.2644,-1.6667,347.1392499933925
Sunbury,51.423,-0.424,347.1823674206654
Tiptree,51.81,0.75,347.50232030794507
Kerkrade,50.8667,6.0667,347.5525138185373
Chigwell,51.6225,0.0723,347.6252182144266
Saint-Junien,45.8881,0.9019,347.67347999274915
Chertsey,51.3902,-0.5074,347.6799375415116
Würselen,50.8167,6.1333,347.8202221899947
Bergeijk,51.3203,5.3592,347.88192465889324
Marpingen,49.45,7.05,347.9000997305778
Brunssum,50.95,5.9667,348.04884236883737
Brentford,51.486,-0.31,348.4083582924581
Landgraaf,50.9083,6.0297,348.4487194046966
Alton,51.1498,-0.9769,348.6791121449946
Zevenbergen,51.6453,4.5997,348.7913747116799
Lempdes,45.7719,3.1944,348.83432324358506
Witham,51.7978,0.6373,348.9321203289392
Feltham,51.4496,-0.4089,348.9784616087993
Breda,51.5875,4.775,349.11605506083134
Eersel,51.3572,5.3147,349.14259933719126
Saint-Herblain,47.2122,-1.6497,349.18498196173493
Hounslow,51.4668,-0.375,349.19202618486577
Friedrichsthal,49.3256,7.0961,349.28803162361817
West End,50.8861,-1.3699,349.3171387531578
Kew Green,51.5308,-0.2248,349.3305208375433
Herzogenrath,50.8667,6.1,349.3827615098503
Acton,51.5135,-0.2707,349.44621992345384
Bouguenais,47.18,-1.6236,349.50774996811305
Farnborough,51.29,-0.75,349.53713303167274
Beaumont,45.7525,3.0836,349.5442663057562
Hampstead,51.5541,-0.1744,349.65839007540694
Schleiden,50.5331,6.4667,349.68098190402173
Hythe,50.869,-1.399,349.72853272450436
Buckhurst Hill,51.632,0.036,349.75902060985055
Chingford,51.623,0.009,349.79355742779404
Ashford,51.434,-0.464,349.8005934096917
Aubière,45.7517,3.1117,349.9722516075378
Tottenham,51.5975,-0.0681,349.9869965386179
Maaseik,51.1019,5.7856,350.0715633138165
Stolberg,50.7667,6.2333,350.151031801462
Loughton,51.6494,0.0735,350.2128758092653
Highgate,51.5716,-0.1448,350.2396526652381
Lymington,50.75,-1.55,350.27547162056464
Chantonnay,46.6878,-1.0494,350.3407368312018
Sankt Ingbert,49.3,7.1167,350.44782639096803
Harwich,51.934,1.266,350.72467189517533
Hornsey,51.587,-0.118,350.7436328877266
Ealing,51.5175,-0.2988,350.8888020439732
Frimley,51.3143,-0.7387,351.09004002086067
Kinrooi,51.1453,5.7409,351.24187303336294
Schiffweiler,49.3667,7.1167,351.3363064604294
Wittlich,49.9869,6.8897,351.3670642467499
Windlesham,51.36,-0.66,351.5388372221493
Hanwell,51.509,-0.338,351.61253757733147
Niort,46.3258,-0.4606,351.6461307856911
Wood Green,51.5981,-0.1149,351.6919833899112
Staines-upon-Thames,51.434,-0.511,351.73048091774154
Edmonton,51.6154,-0.0708,351.79908870211193
Spiesen-Elversberg,49.3167,7.1333,351.8511575952004
Cournon-d’Auvergne,45.7422,3.1972,352.12342606410493
Stanwell,51.457,-0.4715,352.1750636158206
Gangelt,50.9831,6.0,352.2159148428651
Southampton,50.9025,-1.4042,352.33468886348953
Felixstowe,51.9639,1.3514,352.6988685023181
Colchester,51.8917,0.903,352.75924255192075
Dollis Hill,51.5641,-0.2341,352.7975759960662
Bishopstoke,50.9679,-1.3278,352.8318946072651
Camberley,51.335,-0.742,353.0008248353429
East Finchley,51.5902,-0.1753,353.1044531446081
Hilvarenbeek,51.4861,5.1367,353.22751616934323
Southall,51.5111,-0.3756,353.2690831247511
Fleet,51.2834,-0.8456,353.3427542481821
Palmers Green,51.6178,-0.1092,353.37293076012253
Perivale,51.5383,-0.3192,353.59626444153884
Goirle,51.5203,5.0671,353.6113806876131
Couëron,47.2156,-1.7228,353.6208689655665
Englefield Green,51.4301,-0.5699,353.8331538906693
Ponders End,51.646,-0.046,353.890137871994
Eastleigh,50.9667,-1.35,353.93354857127156
Greenford,51.5299,-0.3488,353.9571463906174
Epping,51.7004,0.1087,354.0781747085804
Übach-Palenberg,50.9197,6.1194,354.12380189756084
Wembley,51.5528,-0.2979,354.1322366131795
Alsdorf,50.8833,6.1667,354.2028098147612
Hellevoetsluis,51.8333,4.1333,354.26466677951066
Hendon,51.5837,-0.2252,354.31109568263855
Finchley,51.599,-0.187,354.36137890954103
Redon,47.6522,-2.0836,354.6018962432647
Friern Barnet,51.6126,-0.1584,354.6225795301481
Rijen,51.592,4.9168,354.62396490284095
Hürtgenwald,50.71,6.3744,354.68797441949
Neunkirchen,49.35,7.1667,354.6932323276972
Valkenswaard,51.35,5.4592,354.8509540026373
Ottweiler,49.3667,7.1667,354.9265523196793
Sunninghill,51.4025,-0.655,355.0179325181818
Sudbury,51.5537,-0.3199,355.0511382013957
Hayes,51.5127,-0.4211,355.2044055029352
Cranendonck,51.2853,5.5881,355.26076762589094
Southgate,51.6316,-0.1265,355.3019467223531
Enfield Lock,51.6686,-0.026,355.3969740910919
Moerdijk,51.7031,4.6314,355.4912652243652
Enfield,51.6522,-0.0808,355.6841191507329
Kall,50.55,6.55,355.707195203431
Fontenay-le-Comte,46.466,-0.8061,355.76402282823005
Waltham Abbey,51.6846,0.0004,356.06574269868133
West Drayton,51.5043,-0.4646,356.1711900863094
Ascot,51.4084,-0.6707,356.20804224269773
Héricourt,47.5783,6.7622,356.2483062505742
Eschweiler,50.8167,6.2833,356.2628927197091
Baesweiler,50.9,6.1833,356.2646402559875
Northolt,51.5467,-0.37,356.32565496195247
Sankt Wendel,49.4667,7.1667,356.5226924728976
Harrow on the Hill,51.5655,-0.3327,356.63364787902844
New Milton,50.76,-1.65,356.66817414891784
Chandlers Ford,50.984,-1.3792,356.7364061224447
Sandhurst,51.349,-0.8,356.785824064124
Strijen,51.7422,4.5514,356.8158637697813
Yiewsley,51.513,-0.471,357.21651883041915
Nohfelden,49.5667,7.15,357.27390222114224
Oosterhout,51.6431,4.8569,357.3187582751876
Waltham Cross,51.686,-0.0331,357.3240022655436
Geilenkirchen,50.9653,6.1194,357.3303935176446
Waalre,51.3867,5.4456,357.3956651111616
Nettersheim,50.4925,6.6297,357.442892425325
East Barnet,51.643,-0.163,357.68144671353366
Kenton,51.5878,-0.3086,357.79677677808274
Waldfeucht,51.0714,5.9831,357.8245927489242
Mill Hill,51.62,-0.23,357.9094078468662
Tilburg,51.5572,5.0911,357.93936741375546
Weert,51.251,5.709,358.13754459725095
Made,51.6764,4.7925,358.2667990539588
Totteridge,51.6354,-0.2,358.2809427264205
Hook,51.2773,-0.9633,358.3203621347923
Veldhoven,51.42,5.405,358.5077513798714
Kirkel,49.2833,7.2333,358.662868467868
Winchester,51.0632,-1.308,358.7395075065126
Dongen,51.6258,4.9433,358.7815552550017
Harrow,51.5836,-0.3464,358.8350278036637
Cheshunt,51.702,-0.035,358.94116032248064
Cowley,51.528,-0.481,358.9775799555375
Spijkenisse,51.8333,4.3167,359.107146794924
Barnet,51.6444,-0.1997,359.12460164742254
Edgware,51.6185,-0.2729,359.3415343795247
Blieskastel,49.2333,7.25,359.3567619535425
Savenay,47.3619,-1.9406,359.3862749165722
Iver,51.521,-0.507,359.38632317951556
Belfort,47.64,6.85,359.3989172133061
Braintree,51.878,0.55,359.4198428617315
Wealdstone,51.5957,-0.3352,359.5354530868518
Saint-Philbert-de-Grand-Lieu,47.0358,-1.6386,359.5739031097083
Windsor,51.4791,-0.6095,359.83393308622107
Winkfield,51.4318,-0.7096,359.92297914615625
Uxbridge,51.5404,-0.4778,359.97677939043575
Langerwehe,50.8167,6.3497,360.03941123515074
Lamballe,48.4694,-2.5167,360.1055819790802
Drimmelen,51.6944,4.7972,360.1641490095018
Bracknell,51.416,-0.749,360.26349174352214
Ickenham,51.558,-0.4484,360.4195783152661
Harrow Weald,51.604,-0.339,360.4517511203148
Nideggen,50.7,6.4833,360.4685837002653
Finchampstead,51.361,-0.86,360.50541617572924
Oud-Beijerland,51.82,4.42,360.66890087902965
Stanmore,51.618,-0.314,360.82022079067866
Harlow,51.779,0.128,361.24410429025613
Morbach,49.8167,7.1167,361.2698264938137
Bexbach,49.3494,7.2594,361.35050869244
Pinner,51.5932,-0.3894,361.3665790597455
Ruislip,51.576,-0.433,361.46672814791515
Hatch End,51.601,-0.3743,361.511631301046
Aldenhoven,50.8958,6.2831,361.5148998198286
Slough,51.5084,-0.5881,361.5568439739177
Saint Peter Port,49.4555,-2.5368,361.64793354432743
Warfield,51.442,-0.737,361.9937910142134
Oirschot,51.5047,5.3128,362.0649627641021
Brielle,51.9017,4.1625,362.07554686073803
Montbéliard,47.51,6.8,362.0895058913095
Christchurch,50.73,-1.78,362.36337161336166
Saint Sampson,49.4819,-2.5411,362.41281196837036
Heeze,51.3828,5.5715,362.6668452197377
’s-Gravendeel,51.7812,4.6176,362.748324370803
Nederweert,51.2858,5.7486,362.84369382856346
Southbourne,50.722,-1.798,362.93228128080574
Geertruidenberg,51.7008,4.8603,362.9597077062733
Borehamwood,51.6578,-0.2722,363.01670110531546
Broxbourne,51.7495,-0.0216,363.1220077916646
Heinsberg,51.0631,6.0964,363.13644670553384
Northwood,51.601,-0.4176,363.1713042393105
Eindhoven,51.4344,5.4842,363.19792294218934
Basingstoke,51.2667,-1.0876,363.38269325618677
Romsey,50.989,-1.4966,363.41813047498516
Hoogvliet,51.8667,4.35,363.4268054028107
Raamsdonksveer,51.6993,4.8792,363.4765996932082
Kreuzau,50.75,6.4831,363.51913092308615
Binfield,51.432,-0.792,363.5254586394268
Great Dunmow,51.871,0.364,363.6002956394433
Potters Bar,51.698,-0.183,363.64011896334387
Hoddesdon,51.759,-0.015,363.8334764289844
Loon op Zand,51.6275,5.0758,363.86291704462536
Wokingham,51.4102,-0.8432,363.92173663448216
Sawbridgeworth,51.814,0.15,364.0504704400609
Halstead,51.9451,0.6411,364.17287606188825
Tarare,45.8969,4.4339,364.5000945089887
Oisterwijk,51.5833,5.2,364.590536308955
Mechernich,50.6,6.65,364.61130852372054
Rozenburg,51.9058,4.2486,364.7033422850967
Bushey,51.6429,-0.3604,364.8833287575339
Pontchâteau,47.43,-2.083,365.24409676121843
Ploërmel,47.9325,-2.3961,365.2618174759933
Bourg-en-Bresse,46.2056,5.2289,365.3800269376058
Geldrop,51.4222,5.5578,365.39884837673526
Boscombe,50.725,-1.84,365.59060617690415
Villefranche-sur-Saône,45.9833,4.7167,365.6497302328025
Best,51.5108,5.3922,365.9200975415429
Swanage,50.608,-1.96,365.9382892619374
Ipswich,52.0594,1.1556,366.0460015941173
Bray,51.507,-0.7,366.0990516943409
Audincourt,47.4836,6.8403,366.10182298435984
Dordrecht,51.7958,4.6783,366.1136534753483
Homburg,49.3167,7.3333,366.25955913623426
Maassluis,51.9189,4.2567,366.2618302716249
Linnich,50.9789,6.2678,366.3518999601084
Valentigney,47.4633,6.8331,366.6238336238336
Düren,50.8,6.4833,366.65173805332734
Zwijndrecht,51.824,4.6126,366.8327148828573
Saverne,48.74,7.36,366.9610759456707
Barendrecht,51.85,4.5333,367.0113126265588
Winnersh,51.4281,-0.8794,367.060398382136
Haaren,51.6017,5.2228,367.1696455727888
Kaatsheuvel,51.6667,5.0667,367.17764255216116
Roermond,51.1933,5.9872,367.25231585137993
Radlett,51.685,-0.318,367.2560616245908
Watford,51.655,-0.3957,367.3398083151817
Burnham,51.54,-0.66,367.3465710315679
Aldenham,51.6723,-0.3546,367.4149743239459
Jülich,50.9222,6.3583,367.48921903445773
Bournemouth,50.72,-1.88,367.65516137755975
Ussel,45.5489,2.31,367.824377346244
Zweibrücken,49.25,7.3667,367.9559928509073
Hadleigh,52.0453,0.9583,368.01643806197166
North Mimms,51.7259,-0.2336,368.0901269927645
Shinfield,51.408,-0.947,368.4067522705355
Maidenhead,51.523,-0.722,368.4374971742751
Croxley Green,51.647,-0.445,368.47327131298385
Rickmansworth,51.6383,-0.4659,368.4742694288899
Vlaardingen,51.9167,4.35,368.5235620922167
Wassenberg,51.1,6.15,368.65489868367564
Waalwijk,51.6825,5.0694,368.7568165081967
Nuenen,51.4667,5.55,368.8639721883399
Pontarlier,46.9067,6.3556,368.900963761905
Hoek van Holland,51.9763,4.1323,369.07216715815537
Bad Münstereifel,50.5531,6.7661,369.1430738654948
Chalfont Saint Peter,51.607,-0.556,369.1433058624146
Bishops Stortford,51.872,0.1725,369.17411330121297
Someren,51.3847,5.7119,369.2334997281006
Ringwood,50.8829,-1.7314,369.2503762683863
Canford Cliffs,50.7,-1.93,369.4394438647536
Ware,51.8108,-0.0314,369.43967254884944
Hückelhoven,51.0608,6.2197,369.51833193075026
Vettweiß,50.7389,6.5972,369.54991468752473
Hertford,51.7966,-0.0774,369.5591365112703
Earley,51.433,-0.933,369.8799102072414
Schiedam,51.9167,4.4,369.89858293168714
Hendrik-Ido-Ambacht,51.85,4.63,369.9523005340461
Papendrecht,51.8333,4.6833,369.9686978186494
Great Cornard,52.0245,0.7497,370.0486649736307
Garston,51.6889,-0.3845,370.08183225405014
Woodley,51.453,-0.902,370.18762503957225
Le Poiré-sur-Vie,46.7682,-1.5098,370.1895877134443
Zülpich,50.7,6.65,370.3713101345158
Mierlo,51.45,5.6167,370.39204824729796
Boxtel,51.5911,5.3275,370.4035613833149
London Colney,51.726,-0.3,370.473107201371
Ridderkerk,51.8667,4.6,370.69195791863154
Niederzier,50.8831,6.4667,371.0192365449886
Stansted Mountfitchet,51.898,0.198,371.0363778530033
Son en Breugel,51.5158,5.5022,371.0366066327833
Parkstone,50.71,-1.95,371.2232565561645
Chorleywood,51.65,-0.51,371.2602146242055
Hatfield,51.7636,-0.2258,371.41917095437515
Merzenich,50.8333,6.5333,371.64522137573124
Beaconsfield,51.6009,-0.6347,371.75612742590175
Sliedrecht,51.8222,4.7744,371.8143982995622
Wooburn,51.581,-0.691,372.2807901325856
Sudbury,52.0417,0.7282,372.32972725935656
Abbots Langley,51.701,-0.416,372.38995185312683
Asten,51.4031,5.7472,372.3910568340851
Rotterdam,51.92,4.48,372.4914782530062
La Roche-sur-Yon,46.6705,-1.426,372.53609721202656
Tadley,51.3506,-1.1376,372.5394474916369
Alblasserdam,51.8667,4.6667,372.74873103080074
Naaldwijk,51.9936,4.2133,372.8598541488682
’s-Gravenzande,52.0053,4.174,373.1007383740622
Sint-Oedenrode,51.5636,5.4608,373.4662257268578
Reading,51.4542,-0.9731,373.47824839442865
Poole,50.7167,-1.9833,373.60645986639605
Guebwiller,47.9083,7.2108,373.91049837509956
Fern Down,50.81,-1.9,374.3176074666938
Welwyn Garden City,51.8062,-0.1932,374.3866524959865
Issoire,45.545,3.2497,374.4270076964998
Vught,51.6533,5.2875,374.43092996213585
Saint Albans,51.755,-0.336,374.51874590834456
Caversham,51.467,-0.973,374.5548039444078
Werkendam,51.8097,4.8928,374.56038255756414
Helmond,51.4797,5.6556,374.6538727716384
Nieuw-Lekkerland,51.8833,4.6833,374.91088558604883
Lieshout,51.5219,5.5803,374.94617206155027
Luçon,46.4556,-1.1647,374.9801330964466
Marlow,51.57,-0.78,375.0252222076039
Cernay,47.81,7.18,375.30059654344205
Hamworthy,50.7207,-2.0109,375.49139916161295
Beesel,51.2669,6.0392,375.533256008889
Hardinxveld-Giessendam,51.83,4.87,375.75065435714254
Sandridge,51.7808,-0.3038,375.8122375823778
Krimpen aan den IJssel,51.92,4.6,376.01231012214583
Heusden,51.7339,5.1383,376.1315707636958
Beek en Donk,51.5161,5.6208,376.219988258505
Erkelenz,51.0833,6.3167,376.32587639197
Sint-Michielsgestel,51.6433,5.3586,376.36498038727296
Nörvenich,50.8,6.65,376.371484048535
Euskirchen,50.6597,6.7917,376.59166744537254
Titz,51.0061,6.4242,376.8262233550697
Tilehurst,51.4579,-1.0406,376.8526717712873
Broadstone,50.7605,-1.995,376.8991366281054
Capelle aan den IJssel,51.9357,4.5782,376.934375476254
Henley on Thames,51.5357,-0.903,377.31924919937205
Amersham,51.677,-0.603,377.3770168168442
Plérin,48.5353,-2.7694,377.5204640453799
Welwyn,51.831,-0.215,377.5242655633281
Saint-Brieuc,48.5136,-2.7653,377.5375179232377
Verwood,50.8815,-1.8785,377.56283924317023
Aizenay,46.74,-1.6083,377.9488984095224
’s-Hertogenbosch,51.6833,5.3167,378.3185741103379
Andover,51.208,-1.48,378.4294871229527
Delft,52.0117,4.3592,378.4871817965438
Wegberg,51.1417,6.2792,378.5081180997914
Woudrichem,51.8128,5.0003,378.5838587872618
Molsheim,48.54,7.49,378.63703740574863
Colmar,48.0817,7.3556,378.7296608020264
Corfe Mullen,50.7701,-2.0175,378.80728778961213
High Wycombe,51.6287,-0.7482,378.89419619886314
Obernai,48.46,7.48,379.13485096669706
Hemel Hempstead,51.7526,-0.4692,379.1976355621327
Gorinchem,51.8306,4.9742,379.37503294074804
Wittelsheim,47.8058,7.2383,379.55529200538217
Niederkrüchten,51.1989,6.2194,379.56406186362346
Deurne,51.4639,5.7947,379.62938990958367
Elsdorf,50.9333,6.5667,379.97122145799983
Ploufragan,48.49,-2.794,379.992779509871
Saint-Claude,46.3878,5.8639,380.23017292979955
Saint-Brevin-les-Pins,47.2486,-2.1656,380.3519414408669
Oyonnax,46.2561,5.6556,380.8071643044893
Brüggen,51.2417,6.1822,380.8442746990703
Chesham,51.712,-0.612,380.92582673121944
Harpenden,51.8175,-0.3524,381.0343225587324
Rijswijk,52.0456,4.33,381.20089757101823
Pijnacker,52.0183,4.4361,381.23566661473365
Sélestat,48.2594,7.4542,381.23657623886646
Veghel,51.6169,5.5481,381.84246069633184
Saint-Nazaire,47.2736,-2.2139,382.16246163997914
Saffron Walden,52.022,0.243,382.30820352302055
Gemert,51.5558,5.6867,382.52611486943636
Stowmarket,52.19,1.0,382.7559239213488
Nootdorp,52.0439,4.3978,382.8136163830148
Thatcham,51.405,-1.264,382.9652162886115
Haverhill,52.08,0.44,383.0799808365991
Liesveld,51.9156,4.8456,383.27460112914764
Bergambacht,51.9328,4.7936,383.2816409435595
Berkhampstead,51.76,-0.56,383.3234104433419
Rosmalen,51.7167,5.3667,383.337949536061
Waldniel,51.2131,6.2731,383.40770070812414
Kerpen,50.8719,6.6961,383.5025144270921
Loudéac,48.1778,-2.7539,383.51194997355265
Schwalmtal,51.2225,6.2625,383.55132238325626
Pornic,47.1167,-2.1,383.60735414892093
Montbrison,45.6083,4.0658,383.65191362228876
Le Locle,47.0532,6.7482,383.81479203545
Stevenage,51.9017,-0.2019,383.92473195545404
Great Missenden,51.7042,-0.7078,384.0207779107355
Bedburg,51.0,6.5625,384.1195127577138
Kirn,49.7881,7.4572,384.12939290808043
The Hague,52.08,4.31,384.2302744354803
Erftstadt,50.8167,6.7667,384.2546167491166
Voorburg,52.07,4.355,384.3603734620163
Dardilly,45.8064,4.7536,384.3910444763243
Pirmasens,49.2,7.6,384.4321789128379
Rheinbach,50.6333,6.95,384.82200664355247
Weilerswist,50.7667,6.8331,385.23133583175047
Salisbury,51.0697,-1.795,385.3205951935863
Pfastatt,47.7697,7.3025,385.43257046954153
Newbury,51.401,-1.323,385.4858979068262
Boekel,51.6011,5.6742,385.87478690539376
La Chaux-de-Fonds,47.1028,6.83,386.0691591795958
Scheveningen,52.1081,4.2731,386.20611548736474
Wittenheim,47.8081,7.3375,386.4498900568246
Schoonhoven,51.9475,4.8486,386.49477309872697
Challans,46.8467,-1.8781,386.6760990788135
Bergheim,50.9667,6.65,386.87709857442394
Leidschendam,52.0833,4.4,386.90775012893863
Mayen,50.3333,7.2167,387.04957843391065
Kingersheim,47.7922,7.3386,387.1183822310813
Zaltbommel,51.8123,5.247,387.51568052851366
Jüchen,51.1011,6.5017,387.6092182155071
Zoetermeer,52.0667,4.5,387.9216651986649
Illzach,47.7831,7.3486,388.16294243443156
Rillieux-la-Pape,45.8214,4.8983,388.17357106034393
Écully,45.7753,4.7783,388.3421874352278
Vlist,51.9867,4.7889,388.4462051763016
Blerick,51.3705,6.1429,388.73636508908004
Mulhouse,47.75,7.34,388.81974152036605
Caluire-et-Cuire,45.7953,4.8472,388.8472391708551
Meckenheim,50.6333,7.0167,388.9398746444554
Gouda,52.0181,4.7056,388.9912004100622
Luton,51.8783,-0.4147,389.0343383084275
Uden,51.6667,5.6167,389.1193739336335
Rheydt,51.1667,6.45,389.4058094228954
Tassin-la-Demi-Lune,45.764,4.78,389.5202330761351
Dülken,51.2522,6.3353,389.53266329105253
Craponne,45.74,4.72,389.80645320040384
Miribel,45.8253,4.9536,389.8688312432014
Venlo,51.37,6.1681,389.94751145142646
North Tidworth,51.237,-1.664,390.14471174735587
Pornichet,47.2775,-2.3389,390.2186635209835
Bad Neuenahr-Ahrweiler,50.5447,7.1133,390.37566026712113
Tring,51.7962,-0.6592,390.4806750366467
Waddinxveen,52.05,4.65,390.5212670662725
Horst,51.4514,6.0536,390.7772186335058
Riedisheim,47.7489,7.3675,390.7908692712865
Neerijnen,51.8333,5.2833,390.8358324934226
Mönchengladbach,51.2,6.4333,390.8906532587053
Hitchin,51.947,-0.283,391.04081179271753
Heesch,51.7314,5.53,391.2430587518994
Grevenbroich,51.0883,6.5875,391.44819490157323
Francheville,45.7372,4.7642,391.6204050533521
Nettetal,51.3167,6.2833,391.667848220766
Kaldenkirchen,51.3167,6.2833,391.667848220766
Amesbury,51.173,-1.78,391.700562817003
Lyon,45.76,4.84,392.0574190807389
Lopik,51.9722,4.9464,392.1127577810551
Baldock,51.99,-0.19,392.1428969214615
Boskoop,52.0667,4.65,392.1980424836583
Lingolsheim,48.56,7.68,392.2444210524809
Letchworth,51.978,-0.23,392.28053413088634
Reeuwijksebrug,52.0467,4.7239,392.39702137779403
Royston,52.0471,-0.0202,392.4580873194364
Brumath,48.7328,7.7092,392.5639450153291
Blandford Forum,50.856,-2.165,392.68407302407115
Soyaux,45.6414,0.1986,392.702557566814
Villeurbanne,45.7667,4.8803,392.8609044081231
Reeuwijk,52.05,4.73,392.91070006306234
Erstein,48.42,7.66,392.9389102108676
Mendig,50.3744,7.2808,393.03738494536015
Angoulême,45.65,0.16,393.04275880904964
Viersen,51.2561,6.3972,393.0517634490731
Ambérieu-en-Bugey,45.9631,5.3541,393.06329050129096
Venray,51.5258,5.9747,393.0808374763379
Brühl,50.8333,6.9,393.1411998041689
Escoublac,47.2867,-2.3908,393.18140889132223
Leagrave,51.903,-0.466,393.21551499418666
Vaulx-en-Velin,45.7768,4.9186,393.2809666204878
Frechen,50.9167,6.8167,393.30078823108335
Voorschoten,52.1333,4.45,393.35773648617004
Guérande,47.32,-2.42,393.40197855635745
Rixheim,47.7494,7.4053,393.4245006216519
Chaponost,45.7108,4.7425,393.4913048020826
Sainte-Foy-lès-Lyon,45.73,4.8,393.5927191052252
Dunstable,51.886,-0.521,393.6094299136638
Rommerskirchen,51.0347,6.6914,393.6630145723894
Wassenaar,52.15,4.4,393.7558484798167
Oss,51.7667,5.5167,393.8679498865818
La Grande Racine,46.9068,6.7633,393.8826243214124
Alfter,50.7356,7.0092,394.0758613180282
Veauche,45.5628,4.2786,394.0772828151898
Korschenbroich,51.1833,6.5167,394.1669279620747
Bury Saint Edmunds,52.2474,0.7183,394.27710893857125
Süchteln,51.2833,6.3833,394.3258589762277
Hürth,50.8775,6.8761,394.3759688006564
Ostwald,48.5425,7.7103,394.69388275442776
Zoeterwoude,52.1333,4.5,394.70338478594107
Oudewater,52.025,4.8681,394.73030707063435
Yverdon-les-Bains,46.7785,6.6408,394.7905955605251
Gex,46.3333,6.0578,394.802909300861
Bornheim,50.7592,7.005,395.14844137294216
Wachtberg,50.6167,7.1333,395.3096193399904
Geldermalsen,51.8789,5.2897,395.32308455613975
Oullins,45.715,4.8083,395.3711802559775
Houghton Regis,51.9039,-0.5247,395.42858073403886
Grefrath,51.3333,6.3333,395.47345888526644
Décines-Charpieu,45.7694,4.9594,395.521687372484
Illkirch-Graffenstaden,48.53,7.72,395.5762802484171
Stotfold,52.018,-0.228,396.1187763321883
Wesseling,50.8167,6.9667,396.1428392266959
Breisach am Rhein,48.0333,7.5833,396.47099905264037
Weymouth,50.6097,-2.4547,396.5594975775817
Périgny,46.1533,-1.0953,396.6798491078001
Saint-Genis-Laval,45.696,4.793,396.7177151507338
Bodegraven,52.0822,4.7504,396.73856548976386
Strasbourg,48.5833,7.7458,396.7547775447407
Schiltigheim,48.6078,7.75,396.766594920291
Bron,45.7394,4.9139,396.7672911066697
Bischheim,48.6144,7.7528,396.8949707550681
Hœnheim,48.625,7.7553,396.95797218101586
Pierre-Bénite,45.7044,4.825,397.01093420265903
Sint Anthonis,51.6258,5.8811,397.12952409533517
Leiden,52.16,4.49,397.1591541679391
Divonne-les-Bains,46.3567,6.1428,397.44138530580597
Meyzieu,45.7667,5.0036,397.44801112048026
Brignais,45.6747,4.755,397.51968842932956
Saint-Fons,45.709,4.853,397.5522831481221
Pulheim,51.0,6.8,397.5823025836607
Haguenau,48.82,7.79,397.9119871078073
Saint-Avé,47.6872,-2.7333,398.11984223165103
Chassieu,45.745,4.966,398.14624749584
Didcot,51.606,-1.241,398.37386573734756
Vianen,51.9833,5.1,398.38815380176686
Aylesbury,51.8168,-0.8124,398.391953292575
La Rochelle,46.16,-1.15,398.79991766781063
Neuchâtel,47.0,6.9333,398.804110380877
Thame,51.75,-0.97,398.87916171417226
Oegstgeest,52.1833,4.4667,398.9225724287695
Leiderdorp,52.1667,4.5333,399.01550649876685
Saint-Hilaire-de-Riez,46.7219,-1.9442,399.11178002090656
Aytré,46.1347,-1.1133,399.15799306227007
Sinzig,50.5453,7.2519,399.16778086449347
Kaiserslautern,49.4447,7.7689,399.2510245996627
Katwijk,52.2,4.4167,399.3318295435449
Gland,46.42,6.27,399.3734950766755
Alphen aan den Rijn,52.1333,4.6667,399.3829205011729
Remagen,50.5786,7.2306,399.4707185656226
Saint-Rambert,45.5003,4.2406,399.5410670551005
Bonn,50.7353,7.1022,399.7308462420256
Montfoort,52.05,4.95,399.8210660444392
Vénissieux,45.6978,4.8867,399.8660766462944
Culemborg,51.95,5.2333,399.9287843558068
Irigny,45.674,4.823,399.9523279337127
IJsselstein,52.02,5.0422,399.95349562877243
Niederkassel,50.8167,7.0333,400.13707211730315
Nyon,46.3833,6.2333,400.22486687614673
Bad Breisig,50.5092,7.2964,400.2534292934269
Saint-Genis-Pouilly,46.2437,6.025,400.4075719324266
Cherry Hinton,52.1849,0.176,400.738151259143
Genas,45.7322,5.0028,400.77032430773204
Woerden,52.0833,4.8833,400.95461588801703
Séné,47.6206,-2.7358,401.00075199117566
Newmarket,52.2459,0.4105,401.0157012594071
Dorchester,50.7154,-2.4367,401.0292410309008
Straelen,51.45,6.2667,401.05645205270247
Tiel,51.8833,5.4333,401.18072642120296
Saint-Jean-de-Monts,46.7936,-2.0587,401.22456107443503
Vannes,47.6559,-2.7603,401.2605322486327
Feyzin,45.673,4.859,401.32302076872486
Pontivy,48.0692,-2.9614,401.367050016934
Tulle,45.2678,1.7706,401.4881898272471
Willich,51.2631,6.5492,401.5830776889659
Diss,52.3812,1.1079,401.60134624924905
Leighton Buzzard,51.9165,-0.6617,401.68902880990765
Bergen,51.5992,6.0336,401.8604212824789
Bellegarde-sur-Valserine,46.1083,5.8267,401.86812315217225
Boxmeer,51.6483,5.9444,401.87483016308425
Kaarst,51.2167,6.6167,401.91241489639407
Saint-Priest,45.6972,4.9447,402.03272491922496
Neuenburg am Rhein,47.8147,7.5619,402.0508502557293
Königswinter,50.6736,7.1947,402.10607772547587
Olonne-sur-Mer,46.5369,-1.7717,402.1319566395662
Kehl,48.5667,7.8167,402.1471018842233
Kempen,51.3658,6.4194,402.32480838304474
Grave,51.7592,5.7383,402.3820660932466
Château-d’Olonne,46.505,-1.7361,402.45821319865786
Cologne,50.9364,6.9528,402.45924954586843
Bad Honnef am Rhein,50.645,7.2269,402.61728549133454
Carlton Colville,52.454,1.691,402.703306444289
Estavayer-le-Lac,46.85,6.8472,402.7329378960235
Nieuwegein,52.0314,5.0919,402.73819279176774
Teijlingen,52.2167,4.4833,402.7846591050467
Tönisvorst,51.3208,6.4931,402.8085513524693
Linslade,51.9243,-0.6774,403.00535316062843
Bischwiller,48.7667,7.8575,403.1663829723454
Noordwijk,52.2333,4.45,403.6184926969921
Biggleswade,52.0855,-0.2557,403.62385735799774
Ferney-Voltaire,46.2558,6.1081,403.7343702290389
Andernach,50.4397,7.4017,403.8020078600173
Flitwick,52.0038,-0.4966,403.8784320168434
Corbas,45.66,4.9,404.0703885616894
Cambridge,52.205,0.1225,404.24676957304393
Beccles,52.458,1.563,404.28535814305
Versoix,46.2833,6.1667,404.5931744652465
Sassenheim,52.2258,4.5225,404.7574991762745
Meyrin,46.2167,6.0667,404.78600613202883
Morges,46.5167,6.5,404.98923619036253
Houten,52.0261,5.1728,405.0172199976795
Dormagen,51.1,6.8167,405.0176090528184
Cognac,45.7,-0.33,405.091044390501
Lowestoft,52.48,1.75,405.1177086949879
De Meern,52.0781,5.0281,405.1228880450048
Roelofarendsveen,52.2,4.6333,405.1678982152941
Grigny,45.6092,4.7906,405.27668556709614
Neuss,51.2,6.7,405.2796610001627
Bussy,46.55,6.55,405.43471893743845
Herbolzheim,48.2219,7.7775,405.5228111233036
Abingdon,51.6717,-1.2783,405.57112177904924
Kenzingen,48.1917,7.7683,405.57124898216955
Wantage,51.589,-1.427,405.59120557076204
Cuijk,51.7269,5.8794,405.66272782784046
Les Sables-d’Olonne,46.4972,-1.7833,405.72639993810145
Mions,45.6629,4.956,405.8109415849218
Ampthill,52.0263,-0.4906,405.81269528344103
Wijchen,51.8067,5.7211,405.83751778377126
Le Grand-Saconnex,46.2333,6.1167,406.01944219575427
Delémont,47.3653,7.3472,406.13338212712677
Wijk bij Duurstede,51.9742,5.3417,406.16383062545856
Givors,45.5914,4.7694,406.33395588296906
Weißenthurm,50.4144,7.4606,406.5011804934051
Sankt Augustin,50.77,7.1867,406.80589833966525
Gennep,51.6942,5.9733,407.04311000430556
Neuwied,50.4286,7.4614,407.17903925357604
Sarzeau,47.5281,-2.7686,407.21697844737355
Ettenheim,48.2556,7.8119,407.2528057307148
Nieuwkoop,52.1833,4.7667,407.33158325986454
Heumen,51.7656,5.8433,407.4296314380064
Troisdorf,50.8161,7.1556,407.4814818190433
Rive-de-Gier,45.5303,4.6178,407.5249521292457
Mülheim-Kärlich,50.3869,7.4953,407.5722066317772
Krefeld,51.3333,6.5667,407.57798598462404
Bockum,51.3333,6.5667,407.57798598462404
Boppard,50.2314,7.5908,407.592994182273
Ecublens,46.5333,6.5667,407.6151510071826
Vleuten,52.1081,5.015,407.6177651433303
Müllheim,47.8,7.6333,407.6256854257829
Vernier,46.2,6.1,407.88295557572854
Cowley,51.733,-1.215,407.94252551515785
Lisse,52.25,4.55,407.968100026047
Meerbusch,51.2667,6.6667,408.12464686926194
Willstätt,48.5417,7.8964,408.3018834499416
Efringen-Kirchen,47.6556,7.5658,408.33372409480785
Noordwijkerhout,52.2667,4.5,408.3522996967338
Bad Krozingen,47.9167,7.7,408.40613160743527
Druten,51.8889,5.6044,408.4130877757215
Renens,46.5333,6.5833,408.5762224624567
Roche-la-Molière,45.4347,4.3244,408.65987151172817
Rochefort,45.9421,-0.9588,408.73802708581076
Bernex,46.1667,6.0667,408.92366285844423
Mildenhall,52.3446,0.5089,409.0391522694838
Malden,51.7808,5.8544,409.2254378565895
Onex,46.1833,6.1,409.2596804932733
Sandy,52.131,-0.297,409.4155907352831
Bunnik,52.05,5.2333,409.4195812996087
Utrecht,52.0908,5.1217,409.4832607168617
Prilly,46.5333,6.6,409.5446026986867
Siegburg,50.8014,7.2044,409.62170635930795
Rheinau,48.6678,7.9347,409.6326926517444
Geldern,51.5197,6.3325,409.74160782205996
Saint-Chamond,45.4775,4.5153,409.7459011953495
Friesenheim,48.3731,7.8833,410.05325110761316
Landecy,46.1834,6.1166,410.1086112649004
Geneva,46.2017,6.1469,410.1780466994939
Payerne,46.8167,6.9333,410.218549254535
Teningen,48.1269,7.8103,410.22590591623697
Leverkusen,51.0333,6.9833,410.2301832222912
Gillingham,51.0375,-2.2748,410.2574133003795
Saint-Étienne,45.4347,4.3903,410.5024541355609
Allschwil,47.5508,7.5358,410.5778527188368
Kevelaer,51.5833,6.25,410.7683153832205
Carouge,46.1833,6.1333,410.98118821695334
Maarssen,52.1351,5.0413,411.113173494646
Thetford,52.41,0.74,411.1169067031494
Lohmar,50.8167,7.2167,411.2217180347726
Düsseldorf,51.2256,6.7767,411.2383763745176
Biel/Bienne,47.1372,7.2472,411.25241536293294
Lahnstein,50.3011,7.6056,411.2911615410266
Saint-Louis,47.59,7.57,411.2985761549566
Oxford,51.7519,-1.2578,411.44432472166716
Plan-les-Ouates,46.1667,6.1167,411.49163171962965
Bletchley,51.994,-0.732,411.53682854756755
Saint-Julien-en-Genevois,46.1436,6.0811,411.58115038246706
Weeze,51.6267,6.1967,411.7326968652928
Nieuw-Vennep,52.2644,4.6347,411.74185217852926
Staufen im Breisgau,47.8814,7.7314,411.7944770915221
Kudelstaart,52.2339,4.7483,411.8729790073823
Le Mont-sur-Lausanne,46.5217,6.6269,411.9462851094566
Soham,52.334,0.336,411.9744803952385
Doorn,52.0333,5.35,412.01800568897914
Offenburg,48.4667,7.9333,412.0948771984133
Epalinges,46.55,6.6667,412.23008337889036
Hillegom,52.2833,4.5833,412.26501616918216
Firminy,45.3889,4.2878,412.43826566635664
Lausanne,46.52,6.6333,412.4410560510766
Saintes,45.7464,-0.6333,412.5895340594681
Le Chambon-Feugerolles,45.3969,4.3258,412.6329917588116
Groesbeek,51.7833,5.9333,412.8628033212732
Bad Bergzabern,49.1028,7.9991,412.9224864839446
Beuningen,51.8667,5.7667,413.04305071066995
Koblenz,50.3597,7.5978,413.1534199445624
Emmendingen,48.1214,7.8492,413.1763037763747
Zeist,52.0906,5.2331,413.28902556393757
Breukelen,52.1717,5.0017,413.41675389457555
Rhenen,51.9597,5.5689,413.44649295375444
Hennef,50.7833,7.2833,413.4466956704061
Binningen,47.5333,7.5667,413.4685427574353
Oberwil,47.5135,7.5546,413.4897178121385
Chêne-Bougeries,46.1833,6.1833,413.58091465486496
Thônex,46.1833,6.1833,413.58091465486496
Langenfeld,51.1167,6.95,413.6416397927277
Therwil,47.4997,7.55,413.7766336441711
Weil am Rhein,47.5947,7.6108,413.94367815697467
Rösrath,50.9,7.1833,413.9454319771229
Basel,47.5606,7.5906,413.9616193974971
Bad Kreuznach,49.85,7.8667,414.3032526037278
Uithoorn,52.2333,4.8333,414.3137896782758
Bendorf,50.4297,7.5703,414.3171642768518
Kempston,52.114,-0.497,414.43544505989047
Appenweier,48.5397,7.98,414.4378650880869
Nijmegen,51.8425,5.8528,414.52904604962106
Pully,46.5167,6.6667,414.62217143769914
De Bilt,52.1167,5.2,414.6468792580448
Gaillard,46.1858,6.2083,414.68358958933925
Goch,51.6839,6.1619,414.7842565187397
Veyrier,46.1667,6.1833,414.9401615017162
Shenley Brook End,52.009,-0.789,415.0789858300142
Thonon-les-Bains,46.3627,6.475,415.1342639963368
Aalsmeer,52.2667,4.75,415.22482647142016
Ville-la-Grand,46.2031,6.2475,415.3402067655786
Annemasse,46.1958,6.2364,415.34620385080933
Broughton,52.05,-0.694,415.3569345091052
Bedford,52.135,-0.47,415.5358371646541
Bilthoven,52.1283,5.1986,415.7145889232123
Issum,51.5389,6.4236,415.7339358676351
Warminster,51.205,-2.181,415.83761946398835
Gorleston-on-Sea,52.5757,1.7235,415.89152881254427
Brive-la-Gaillarde,45.1583,1.5321,415.910833129912
Devizes,51.3528,-1.9958,416.03719114701636
Auray,47.6686,-2.9814,416.2256314313333
Bergisch Gladbach,50.9918,7.1303,416.23666810609865
Shenley Church End,52.022,-0.788,416.2456297465704
Vallendar,50.3971,7.622,416.3052865969292
Gundelfingen,48.05,7.8667,416.3554650214161
Ubbergen,51.8333,5.9167,416.45911893091437
Birsfelden,47.5531,7.6231,416.5344706797228
Hilden,51.1714,6.9394,416.6179032621944
Kranenburg,51.7897,6.0072,416.6548459067145
Freiburg im Breisgau,47.995,7.85,416.7294130937934
Vienne,45.5242,4.8781,416.7654890926277
Lutry,46.5,6.6833,416.7940211389595
Reinach,47.4936,7.5908,416.86034356501295
Milton Keynes,52.04,-0.76,416.8663384555279
Lörrach,47.6167,7.6667,416.9452512032469
Denzlingen,48.0683,7.8825,416.9889742603245
Riehen,47.5806,7.6492,417.1998482556828
Brandon,52.4474,0.6242,417.40725046970783
Leichlingen,51.1167,7.0167,417.4363120682451
Hoofddorp,52.3061,4.6907,417.52907421563714
Wageningen,51.9644,5.6631,417.58377114775595
Münchenstein,47.5186,7.6174,417.61131978669977
Villefontaine,45.6142,5.1494,417.7775548114981
Attleborough,52.5183,1.0192,417.8205129454162
Odenthal,51.0333,7.1167,417.9691622867553
Saint Neots,52.228,-0.27,418.09895849683284
Grenchen,47.1931,7.3958,418.1018709032465
Aesch,47.4694,7.5942,418.16425750627616
Vétraz-Monthoux,46.1742,6.2581,418.24113225501026
Kamp-Lintfort,51.5,6.5333,418.24392226350636
Loenen,52.2167,5.0167,418.31788158209787
Lyss,47.075,7.3069,418.6094120442743
Erkrath,51.2239,6.9147,418.73342553189667
Bradwell,52.05,-0.787,418.8076882127105
Woudenberg,52.0806,5.4164,418.888974582591
Veenendaal,52.025,5.555,418.9034424653853
Sonsbeck,51.6089,6.3769,418.9281367909986
Arlesheim,47.4922,7.6203,418.9586560218965
Sherborne,50.9469,-2.5171,418.95898278318305
Kidlington,51.8231,-1.2903,418.9626494181287
Gengenbach,48.4,8.0167,419.2882813897935
Muttenz,47.5228,7.6452,419.3560705615333
Great Yarmouth,52.6078,1.7331,419.36854616560186
Zandvoort,52.3667,4.5333,419.49140568167263
Monistrol-sur-Loire,45.2933,4.1728,419.499614065657
Moers,51.4592,6.6197,419.59408430551053
Great Linford,52.068,-0.7637,419.6149250632391
Achern,48.6333,8.0667,419.6418472629542
Bicester,51.9,-1.15,419.64188220912615
Évian-les-Bains,46.3833,6.5833,419.6558211011418
Haan,51.1667,7.0,419.7216988819264
Bad Ems,50.3381,7.7106,419.72533189205853
Bingen am Rhein,49.9667,7.9,419.79114123968714
Newport Pagnell,52.087,-0.722,419.8559073675798
Heemstede,52.35,4.6167,419.97502049442494
L’Isle-d’Abeau,45.6233,5.2305,420.02576264295016
Westbury,51.26,-2.191,420.10754115773955
Ratingen,51.3,6.85,420.3686244541172
Swindon,51.56,-1.78,420.3849828243449
Ely,52.3981,0.2622,420.4304668598444
Grenzach-Wyhlen,47.545,7.6758,420.5358380035423
Steinen,47.6453,7.7403,420.95753333933857
Renkum,51.9738,5.7294,421.0828914463881
Wolverton,52.0625,-0.8167,421.0849256252008
Höhr-Grenzhausen,50.435,7.6711,421.12860324455755
Buckingham,51.995,-0.986,421.44008861459173
Scherpenzeel,52.0792,5.4894,421.451876457839
Amstelveen,52.3,4.85,421.4838968772403
Stratton Saint Margaret,51.586,-1.762,421.5103838899527
Landau,49.2,8.1167,421.90960627527926
Wymondham,52.57,1.116,421.95689137682575
Oberkirch,48.5333,8.0833,422.0735151461208
Burscheid,51.1,7.1167,422.1111172947737
Abcoude,52.27,4.97,422.11755046712074
Waldkirch,48.1,7.9667,422.2145650988519
Rüdesheim am Rhein,49.9833,7.9306,422.38352446714663
Kleve,51.79,6.14,422.60645357940825
Bedburg,51.7667,6.1833,422.6233406717984
Calne,51.438,-2.005,422.68790177979537
Eisenberg,49.5614,8.0725,422.7574503037314
Pratteln,47.5185,7.6928,422.8394074102057
Badhoevedorp,52.3333,4.7833,422.8946075272937
Saint Ives,52.3344,-0.0761,422.9255816175508
Alpen,51.575,6.5125,422.94071979954083
Eitorf,50.7697,7.4517,423.1007478981515
Soest,52.1733,5.2917,423.2401273869915
Mettmann,51.25,6.9667,423.37158668855426
Villars-sur-Glâne,46.7833,7.1167,423.78699103839926
Haarlem,52.3833,4.6333,423.8222231329186
Overath,50.95,7.3,423.82377182721024
Bühl,48.6953,8.135,424.029310117493
Caister-on-Sea,52.651,1.733,424.1450667019015
Witney,51.78,-1.49,424.23688255862794
Leusden,52.1331,5.4297,424.3124353157627
Bloemendaal,52.4,4.6,424.6487343321011
Hilversum,52.2333,5.1667,424.80067725659353
Fribourg,46.8,7.15,424.82399838213064
Solingen,51.1719,7.0847,424.8555943773187
Amersfoort,52.155,5.3875,424.86535370907427
Melksham,51.371,-2.138,424.92075438294785
Ede,52.0436,5.6667,424.9279736234876
Geisenheim,49.9844,7.9672,424.9422495890575
Trowbridge,51.32,-2.208,425.1488704091129
Rheinberg,51.5467,6.6006,425.19097018061024
Kirchzarten,47.965,7.9556,425.19418205542473
Frome,51.2279,-2.3215,425.1979653525411
Royal Wootton Bassett,51.541,-1.905,425.20411626981536
Duisburg,51.4347,6.7625,425.2315702965757
Bourgoin-Jallieu,45.5861,5.2736,425.2864795536222
Kalkar,51.7389,6.2925,425.36972084432716
Lannion,48.7333,-3.4542,425.43798934888497
Belley,45.7667,5.6833,425.495045318281
Littleport,52.4568,0.3046,425.49553034603696
Neustadt,49.35,8.15,425.5145487374007
Périgueux,45.1929,0.7217,425.7023657155023
Sinzheim,48.7619,8.1669,425.8334093723049
Huntingdon,52.3364,-0.1717,425.90031557977903
Norwich,52.6286,1.2928,425.9761017057315
Yeovil,50.9452,-2.637,426.0267343947027
Thorpe Saint Andrew,52.6354,1.3431,426.11687895173935
Schopfheim,47.65,7.8167,426.13464407697853
Baarn,52.2117,5.2875,426.77874925650553
Solothurn,47.2081,7.5375,426.80228986855394
Xanten,51.6622,6.4539,426.8790442540452
Carterton,51.76,-1.59,427.1862756243094
Liestal,47.4839,7.735,427.2505710985316
Hoogland,52.1872,5.3744,427.4588019673098
Kandel,49.0833,8.2,427.49280577100524
Weesp,52.3,5.05,427.57471122231965
Wohleiberg,46.9719,7.3569,427.7103226471483
Kürten,51.0497,7.2667,427.7441451908266
Rastatt,48.85,8.2,427.7495405512087
Rumilly,45.8758,5.9447,427.7650219023498
Heiligenhaus,51.3167,6.9667,427.8906662783908
Rheinfelden (Baden),47.5611,7.7917,427.93237090083176
Much,50.9167,7.4,427.93610439659017
Bad Dürkheim,49.4594,8.1681,428.08905591018515
Diemen,52.3333,4.9667,428.3010727116638
Zuchwil,47.2056,7.5597,428.41987117641435
Rheinfelden,47.5539,7.7958,428.5145324958887
Laren,52.25,5.2333,428.6358633413144
Hellesdon,52.6485,1.2509,428.67394177395727
Vevey,46.4667,6.85,428.930544233525
Oestrich-Winkel,50.0025,8.0175,428.93736088179037
Ruppichteroth,50.8439,7.4836,429.01925537888945
Herxheim,49.1469,8.22,429.14913173809805
Eemnes,52.25,5.25,429.1963536826452
Alzey,49.7458,8.1153,429.2884949467718
Wülfrath,51.2833,7.0333,429.3009398624461
Bradford-on-Avon,51.347,-2.251,429.35439497218886
Poisy,45.9216,6.0622,429.45027772104805
Biberist,47.1828,7.5586,429.51439316161003
Arnhem,51.9833,5.9167,429.5897906125599
Bussum,52.2833,5.1667,429.6715575428247
Grünstadt,49.5692,8.1681,429.70460449773213
La Roche-sur-Foron,46.0673,6.3113,429.75478700710363
Barneveld,52.1333,5.5833,429.9964216058165
Chippenham,51.459,-2.116,430.03659768967736
Amsterdam,52.3728,4.8936,430.06323525946544
